     2.11           OBSERVATION DATA    G (GPS)             RINEX VERSION / TYPE
teqc  2019Feb25     NOAA/NOS/NGS/CORS   20210102 09:34:58UTCPGM / RUN BY / DATE
Linux 2.4.21-27.ELsmp|Opteron|gcc|Linux 64|=+               COMMENT
teqc  2019Feb25     NOAA/NOS/NGS/CORS   20210102 09:34:57UTCCOMMENT
teqc  2020Oct7      UNAVCO Archive Ops  20210102 00:15:57UTCCOMMENT
BIT 2 OF LLI FLAGS DATA COLLECTED UNDER A/S CONDITION       COMMENT
RINEX file created by UNAVCO GPS Archive.                   COMMENT
For more information contact archive-gps@unavco.org         COMMENT
Monument ID: 24127                                          COMMENT
UNAVCO 4-char name:   CN00                                  COMMENT
4-char name from Log or data file: CN00                     COMMENT
Monument location: 17.668525 -61.785578 -21.9               COMMENT
Visit ID: 129746                                            COMMENT
                                                            COMMENT
Barbuda__ATG2012                                            COMMENT
                                                            COMMENT
doi:10.7283/T5FN14GQ                                        COMMENT
End of DB comments                                          COMMENT
input file: cn00202101010000a.tgd                           COMMENT
 SNR is mapped to RINEX snr flag value [0-9]                COMMENT
  L1 & L2: min(max(int(snr_dBHz/6), 0), 9)                  COMMENT
CN00                                                        MARKER NAME
UNAVCO Community    UNAVCO                                  OBSERVER / AGENCY
5235K51839          TRIMBLE NETR9       5.45                REC # / TYPE / VERS
5240354581          TRM59800.00     SCIT                    ANT # / TYPE
  2874042.8770 -5356829.4800  1923453.5060                  APPROX POSITION XYZ
        0.0083        0.0000        0.0000                  ANTENNA: DELTA H/E/N
     1     1                                                WAVELENGTH FACT L1/2
     7    L1    L2    C1    P2    P1    S1    S2            # / TYPES OF OBSERV
    30.0000                                                 INTERVAL
teqc.e windowed: start @ 2021 Jan  1 00:00:00.000           COMMENT
teqc.e windowed: delta = 86400.000 sec                      COMMENT
teqc.e edited: all SBAS satellites excluded                 COMMENT
teqc.e edited: all QZSS satellites excluded                 COMMENT
Forced Modulo Decimation to 30 seconds                      COMMENT
  2021     1     1     0     0    0.0000000     GPS         TIME OF FIRST OBS
                                                            END OF HEADER
 21  1  1  0  0  0.0000000  0 11G07G21G30G09G08G01G04G27G22G14G16
 112835681.821 8  87923904.51446  21471905.070    21471908.855
        50.100          40.300
 107005733.934 8  83381185.74247  20362511.984    20362515.629
        50.500          43.600
 126426522.657 6  98514204.44644  24058171.328    24058177.469
        40.600          25.600
 121885689.384 7  94975822.41144  23194053.492    23194060.711
        42.000          27.000
 112548716.230 8  87700294.80948  21417282.883    21417289.105
        48.700          50.700
 109175889.602 8  85072172.80746  20775470.711    20775478.508
        49.700          41.600
 124037591.208 6  96652613.70344  23603543.203    23603549.348
        39.000          25.300
 124484745.822 6  97001150.56346  23688643.148    23688650.066
        41.700          38.700
 127692636.898 6  99500838.56242  24299113.758    24299117.711
        37.300          17.800
 133927143.90114                  25485485.609
        29.900
 126450412.393 6  98532825.40243  24062693.086    24062696.203
        39.700          21.700
 21  1  1  0  0 30.0000000  0 11G07G21G30G09G08G01G04G27G22G14G16
 112760649.563 8  87865437.81846  21457626.914    21457630.875
        49.700          40.200
 107007709.379 8  83382725.05047  20362887.891    20362891.789
        50.300          43.400
 126325832.092 6  98435744.26344  24039010.547    24039017.086
        41.300          26.600
 121935451.423 7  95014598.01444  23203523.086    23203529.840
        43.000          26.100
 112605096.537 8  87744227.51448  21428011.734    21428018.004
        48.800          50.500
 109099758.245 8  85012849.68146  20760983.594    20760991.176
        50.200          41.700
 124113939.219 6  96712105.64044  23618071.875    23618077.711
        39.900          27.200
 124570193.188 6  97067732.92446  23704902.945    23704909.543
        41.500          38.200
 127640691.838 6  99460362.06243  24289229.125    24289232.320
        38.600          18.600
 133870312.87615                  25474671.227
        31.000
 126490001.163 6  98563673.75243  24070226.773    24070229.641
        39.800          20.900
 21  1  1  0  1  0.0000000  0 11G07G21G30G09G08G01G04G27G22G14G16
 112685987.973 8  87807259.96046  21443419.328    21443423.215
        50.200          40.700
 107010266.891 8  83384717.93547  20363374.883    20363378.574
        50.300          44.000
 126225269.857 6  98357384.09744  24019874.125    24019880.863
        41.300          24.800
 121985395.829 7  95053515.72444  23213027.063    23213034.281
        43.800          27.100
 112661598.074 8  87788254.67948  21438763.633    21438770.254
        48.200          50.600
 109024062.544 8  84953866.02747  20746579.000    20746586.793
        50.700          42.000
 124190229.632 6  96771552.69944  23632589.352    23632595.207
        40.900          24.900
 124655554.557 6  97134248.27246  23721146.242    23721153.527
        40.100          37.700
 127588606.812 6  99419776.42743  24279318.023    24279321.555
        38.600          18.600
 133813355.66315                  25463832.734
        30.500
 126529656.530 6  98594574.01343  24077771.945    24077776.391
        39.200          19.600
 21  1  1  0  1 30.0000000  0 11G07G21G30G09G08G01G04G27G22G14G16
 112611699.530 8  87749372.86346  21429282.398    21429286.453
        49.900          40.200
 107013406.105 8  83387164.09347  20363971.883    20363975.797
        50.200          43.600
 126124838.374 6  98279125.82744  24000762.414    24000769.188
        39.700          25.300
 122035519.528 7  95092573.12444  23222565.859    23222571.941
        43.000          27.900
 112718218.939 8  87832374.83548  21449538.141    21449545.164
        49.100          50.700
 108948805.263 8  84895224.00046  20732258.102    20732265.727
        49.900          41.500
 124266459.691 6  96830952.72144  23647095.617    23647101.461
        40.000          26.800
 124740828.312 6  97200695.31946  23737373.344    23737379.891
        39.200          36.500
 127536383.656 6  99379083.22043  24269380.719    24269383.781
        39.200          20.900
 133756271.43015                  25452968.773
        32.600
 126569378.839 6  98625526.46643  24085330.984    24085335.359
        38.300          20.600
 21  1  1  0  2  0.0000000  0 11G07G21G30G09G08G01G04G27G22G14G16
 112537787.268 8  87691778.89546  21415217.031    21415221.508
        50.000          40.000
 107017127.100 8  83390063.57547  20364680.266    20364683.926
        51.000          43.500
 126024540.233 6  98200971.45544  23981676.555    23981683.594
        41.000          26.800
 122085819.870 7  95131768.20044  23232137.078    23232143.996
        43.200          28.000
 112774956.684 8  87876586.05348  21460334.969    21460341.750
        48.200          50.500
 108873989.544 8  84836926.06446  20718020.953    20718028.773
        50.800          41.400
 124342626.845 6  96890303.76644  23661589.758    23661595.430
        40.800          26.000
 124826013.222 6  97267073.14646  23753583.516    23753590.680
        39.200          36.500
 127484024.680 6  99338284.14043  24259416.453    24259420.559
        37.800          20.900
 133699060.13715                  25442081.547
        31.300
 126609169.583 6  98656532.20743  24092902.836    24092907.504
        39.700          21.100
 21  1  1  0  2 30.0000000  0 11G07G21G30G09G08G01G04G27G22G14G16
 112464253.929 8  87634480.19246  21401224.125    21401228.605
        48.500          39.600
 107021430.034 8  83393416.51847  20365498.922    20365502.680
        50.300          43.400
 125924378.060 6  98122923.01944  23962616.359    23962623.051
        39.600          26.100
 122136294.145 7  95171098.79444  23241742.742    23241749.195
        44.100          28.900
 112831809.345 7  87920886.81148  21471153.617    21471160.383
        47.100          50.100
 108799618.206 8  84778974.37747  20703868.469    20703876.531
        50.500          42.300
 124418728.614 6  96949603.82944  23676071.148    23676077.773
        41.200          26.100
 124911107.802 6  97333380.59846  23769776.719    23769783.730
        39.400          36.300
 127431531.873 6  99297380.75243  24249426.891    24249430.992
        37.700          21.300
 133641721.17815                  25431172.477
        30.700
 126649029.338 6  98687591.73043  24100488.719    24100492.395
        40.400          22.000
 21  1  1  0  3  0.0000000  0 11G07G21G30G09G08G01G04G27G22G14G16
 112391102.431 8  87577479.02546  21387304.227    21387308.258
        50.000          39.600
 107026314.466 8  83397222.59047  20366428.633    20366432.184
        50.000          44.100
 125824354.740 6  98044982.77344  23943582.359    23943588.840
        38.800          26.000
 122186939.604 7  95210562.79245  23251379.891    23251386.902
        44.300          30.100
 112888774.862 7  87965275.51948  21481993.797    21482000.430
        47.100          49.900
 108725694.411 8  84721371.44346  20689801.398    20689809.113
        50.700          41.900
 124494762.528 6  97008851.04144  23690539.508    23690546.289
        40.300          25.400
 124996111.023 6  97399616.86546  23785952.602    23785958.770
        41.200          37.500
 127378906.998 6  99256374.48443  24239412.820    24239416.578
        37.300          21.500
 133584253.838 5                  25420236.023
        30.300
 126688959.571 6  98718706.17943  24108087.094    24108090.480
        40.000          21.700
 21  1  1  0  3 30.0000000  0 11G07G21G30G09G08G01G04G27G22G14G16
 112318334.900 8  87520777.05146  21373457.117    21373461.191
        49.600          40.400
 107031779.834 8  83401481.33247  20367468.156    20367472.004
        51.100          43.700
 125724472.390 6  97967152.40244  23924575.141    23924581.574
        38.800          25.500
 122237752.892 7  95250157.54945  23261049.383    23261055.984
        42.800          30.000
 112945850.340 7  88009749.90148  21492855.117    21492861.730
        47.000          50.200
 108652220.623 8  84664119.14646  20675819.828    20675827.727
        50.700          41.900
 124570725.598 6  97068043.03544  23704995.477    23705001.574
        40.000          25.600
 125081020.867 6  97465780.38046  23802110.625    23802116.906
        41.600          38.400
 127326152.728 6  99215267.39843  24229374.336    24229377.672
        38.300          21.500
 133526658.20514                  25409276.234
        29.900
 126728961.049 6  98749876.16143  24115699.391    24115702.574
        41.100          21.500
 21  1  1  0  4  0.0000000  0 11G07G21G30G09G08G01G04G27G22G14G16
 112245954.930 8  87464377.07846  21359683.648    21359687.512
        49.600          40.500
 107037826.522 8  83406193.04447  20368619.094    20368622.488
        50.200          43.700
 125624733.962 6  97889434.13944  23905596.016    23905602.254
        38.700          24.900
 122288731.784 6  95289881.36544  23270750.070    23270757.160
        41.800          28.900
 113003034.556 7  88054309.02048  21503736.664    21503742.852
        46.800          49.900
 108579200.261 8  84607220.18046  20661924.336    20661932.191
        49.500          41.700
 124646615.783 6  97127178.23043  23719437.039    23719443.133
        38.600          23.000
 125165836.678 6  97531870.63046  23818250.391    23818256.754
        41.600          37.500
 127273270.837 6  99174060.87343  24219310.930    24219314.078
        37.800          21.100
 133468934.73514                  25398292.102
        29.900
 126769035.211 6  98781102.78243  24123325.102    24123328.816
        40.100          19.600
 21  1  1  0  4 30.0000000  0 11G07G21G30G09G08G01G04G27G22G14G16
 112173964.879 8  87408280.93946  21345984.133    21345988.531
        49.600          40.200
 107044453.701 8  83411357.09247  20369880.266    20369883.457
        50.900          43.400
 125525141.917 6  97811829.94344  23886643.859    23886650.195
        38.400          24.200
 122339873.050 7  95329731.68344  23280482.289    23280489.055
        42.300          29.100
 113060325.069 7  88098950.96248  21514638.906    21514645.023
        47.600          49.800
 108506635.810 8  84550676.45647  20648115.766    20648123.555
        50.000          42.000
 124722430.177 6  97186254.39044  23733863.664    23733869.727
        39.500          26.800
 125250556.687 6  97597886.19245  23834371.734    23834378.535
        40.200          35.600
 127220263.413 6  99132756.48943  24209223.195    24209227.082
        39.200          22.000
 133411081.080 4                  25387281.781
        28.000
 126809182.987 6  98812386.76643  24130964.742    24130968.285
        40.000          22.900
 21  1  1  0  5  0.0000000  0 11G07G21G30G09G08G01G04G27G22G14G16
 112102367.241 8  87352490.57046  21332359.289    21332364.129
        50.000          40.500
 107051660.829 8  83416973.03747  20371251.797    20371255.063
        50.300          44.000
 125425698.697 6  97734341.74044  23867720.195    23867727.020
        39.200          25.300
 122391173.825 6  95369706.34644  23290244.039    23290250.996
        40.700          29.000
 113117719.716 7  88143674.05548  21525560.430    21525567.105
        46.600          49.800
 108434530.131 8  84494490.23847  20634394.383    20634402.277
        50.200          42.100
 124798166.452 6  97245269.63243  23748275.727    23748281.621
        38.900          22.500
 125335179.503 6  97663826.05846  23850474.750    23850481.625
        39.900          36.700
 127167132.846 6  99091356.14744  24199113.109    24199116.883
        39.900          25.300
 133353098.14915                  25376248.648
        30.100
 126849404.870 6  98843728.49243  24138618.609    24138622.672
        39.200          21.300
 21  1  1  0  5 30.0000000  0 11G07G21G30G09G08G01G04G27G22G14G16
 112031164.876 8  87297008.21046  21318810.430    21318814.461
        50.200          40.900
 107059447.729 8  83423040.75747  20372733.516    20372737.203
        50.800          43.600
 125326406.972 6  97656971.57044  23848825.430    23848833.102
        39.500          27.700
 122442631.355 6  95409803.13844  23300036.344    23300043.141
        40.800          28.600
 113175216.294 7  88188476.56848  21536501.641    21536508.484
        47.900          49.800
 108362886.059 8  84438663.70947  20620761.016    20620768.688
        50.000          42.300
 124873821.931 6  97304221.98243  23762672.773    23762678.707
        39.800          22.900
 125419703.940 6  97729689.24546  23866559.820    23866566.070
        40.300          36.400
 127113881.064 6  99049861.36943  24188979.781    24188983.734
        39.800          22.900
 133294985.554 5                  25365190.375
        31.500
 126889702.049 6  98875128.86543  24146286.773    24146290.855
        39.000          22.200
 21  1  1  0  6  0.0000000  0 11G07G21G30G09G08G01G04G27G22G14G16
 111960360.524 8  87241835.98446  21305337.195    21305340.754
        50.000          41.100
 107067814.249 8  83429560.13647  20374325.766    20374329.063
        50.500          43.600
 125227269.384 6  97579721.50244  23829960.969    23829967.816
        40.600          25.600
 122494242.898 6  95450019.92544  23309857.656    23309864.648
        40.600          29.200
 113232812.294 7  88233356.55448  21547462.172    21547468.926
        47.100          50.200
 108291706.481 8  84383199.12447  20607216.039    20607224.063
        50.600          42.000
 124949394.090 6  97363109.35644  23777053.602    23777059.551
        39.900          25.200
 125504128.683 6  97795474.75146  23882624.719    23882631.293
        40.400          36.000
 127060510.336 6  99008273.88143  24178823.727    24178827.387
        39.700          23.200
 133236742.60015                  25354107.117
        32.000
 126930075.924 6  98906588.99043  24153969.844    24153974.117
        38.700          22.000
 21  1  1  0  6 30.0000000  0 11G07G21G30G09G08G01G04G27G22G14G16
 111889956.607 8  87186975.79046  21291939.578    21291943.363
        49.700          41.300
 107076759.838 8  83436530.73747  20376027.672    20376031.215
        50.600          43.500
 125128288.558 6  97502593.59144  23811126.117    23811132.105
        40.400          25.300
 122546005.342 6  95490354.28944  23319707.125    23319715.090
        39.400          28.500
 113290506.148 7  88278312.79148  21558440.742    21558447.512
        47.100          49.800
 108220994.060 8  84328098.55347  20593759.961    20593767.770
        50.100          42.600
 125024880.372 6  97421929.83144  23791417.672    23791424.145
        40.400          26.100
 125588452.361 6  97861181.50646  23898671.250    23898677.285
        40.300          37.100
 127007022.630 6  98966595.28344  24168645.461    24168647.980
        40.000          25.600
 133178369.05414                  25342999.828
        29.600
 126970527.127 6  98938109.41843  24161666.938    24161671.535
        39.200          21.700
 21  1  1  0  7  0.0000000  0 11G07G21G30G09G08G01G04G27G22G14G16
 111819956.142 8  87132429.98846  21278619.133    21278622.691
        48.700          40.600
 107086284.154 8  83443952.29147  20377840.344    20377843.777
        50.700          43.800
 125029467.208 6  97425589.93444  23792320.773    23792326.766
        40.800          26.200
 122597916.257 6  95530804.34744  23329585.750    23329593.418
        40.600          28.700
 113348295.874 7  88323343.74948  21569437.883    21569444.641
        46.900          50.000
 108150751.950 8  84273364.44747  20580393.148    20580401.098
        50.700          42.000
 125100278.600 6  97480681.69044  23805766.398    23805772.488
        41.800          25.500
 125672673.920 6  97926808.69646  23914698.398    23914704.211
        40.400          36.100
 126953420.486 6  98924827.48244  24158445.086    24158448.352
        41.000          25.300
 133119865.31214                  25331865.906
        29.900
 127011056.835 6  98969690.98543  24169379.945    24169383.691
        40.900          22.900
 21  1  1  0  7 30.0000000  0 11G07G21G30G09G08G01G04G27G22G14G16
 111750361.924 8  87078200.72646  21265375.250    21265379.563
        50.000          41.400
 107096387.047 8  83451824.67947  20379762.609    20379766.453
        50.800          43.900
 124930808.087 6  97348712.70744  23773546.375    23773552.395
        41.500          26.500
 122649972.821 6  95571367.90844  23339491.664    23339499.250
        40.200          26.500
 113406179.267 7  88368447.68548  21580452.836    21580459.250
        47.900          50.200
 108080982.972 8  84218999.02447  20567116.852    20567124.438
        51.000          42.800
 125175586.362 6  97539363.03144  23820096.547    23820102.766
        40.900          24.400
 125756792.252 6  97992355.44246  23930704.914    23930711.227
        39.400          36.500
 126899706.036 6  98882972.15943  24148223.141    24148226.273
        39.100          22.300
 133061230.16514                  25320707.109
        28.300
 127051666.371 6  99001334.79343  24177108.328    24177111.500
        40.900          21.700
 21  1  1  0  8  0.0000000  0 11G07G21G30G09G08G01G04G27G22G14G16
 111681176.045 8  87024289.65246  21252209.586    21252213.801
        49.300          41.400
 107107067.129 8  83460146.83747  20381795.172    20381798.758
        51.900          44.100
 124832313.204 6  97271963.43444  23754803.086    23754809.215
        40.700          25.300
 122702171.553 6  95612042.24544  23349425.281    23349431.770
        41.000          28.400
 113464153.664 8  88413622.53948  21591484.852    21591491.363
        48.900          50.000
 108011689.191 8  84165003.87447  20553930.672    20553938.277
        51.000          43.200
 125250800.426 6  97597971.37644  23834409.422    23834415.570
        40.500          25.100
 125840805.279 6  98057820.14146  23946692.109    23946698.898
        40.400          37.500
 126845881.150 6  98841030.78644  24137980.219    24137984.109
        39.300          25.000
 133002462.59715                  25309525.148
        30.800
 127092356.056 6  99033041.02243  24184850.758    24184854.500
        41.200          21.100
 21  1  1  0  8 30.0000000  0 11G07G21G30G09G08G01G04G27G22G14G16
 111612401.358 8  86970698.99646  21239122.391    21239126.430
        50.200          41.100
 107118324.157 8  83468918.55047  20383937.305    20383940.813
        50.500          43.700
 124733985.339 6  97195344.34244  23736091.219    23736098.316
        40.800          26.600
 122754509.829 7  95652825.31144  23359385.203    23359391.746
        42.000          28.700
 113522217.439 7  88458867.02748  21602533.961    21602540.504
        47.800          49.700
 107942873.676 8  84111381.40047  20540835.289    20540843.215
        50.400          42.800
 125325918.544 6  97656504.98843  23848703.359    23848709.781
        38.700          22.500
 125924712.127 6  98123202.09546  23962659.391    23962666.168
        39.800          38.300
 126791948.038 6  98799005.09744  24127717.602    24127720.641
        40.600          24.400
 132943563.499 5                  25298317.555
        31.200
 127133127.141 6  99064810.71643  24192609.602    24192613.176
        40.000          21.500
 21  1  1  0  9  0.0000000  0 11G07G21G30G09G08G01G04G27G22G14G16
 111544040.957 8  86917431.14846  21226113.680    21226117.738
        50.000          41.200
 107130158.005 8  83478139.74747  20386189.430    20386192.676
        50.000          43.300
 124635827.645 6  97118857.82644  23717412.359    23717419.387
        40.900          24.400
 122806985.262 7  95693715.27144  23369371.508    23369377.215
        43.200          28.200
 113580368.980 8  88504179.91648  21613599.961    21613606.488
        48.300          49.900
 107874539.533 8  84058134.03747  20527831.820    20527839.684
        51.000          42.600
 125400938.820 6  97714962.31943  23862979.539    23862985.699
        38.900          22.200
 126008512.055 6  98188500.71846  23978606.086    23978612.891
        39.900          37.500
 126737908.917 6  98756896.78643  24117434.250    24117437.547
        39.600          22.800
 132884532.69615                  25287083.820
        31.000
 127173981.027 6  99096644.89243  24200384.008    24200387.469
        40.100          21.700
 21  1  1  0  9 30.0000000  0 11G07G21G30G09G08G01G04G27G22G14G16
 111476097.162 8  86864487.93546  21213184.438    21213188.414
        50.300          40.900
 107142567.874 8  83487809.77947  20388550.422    20388554.004
        50.000          43.400
 124537842.452 6  97042505.74544  23698765.844    23698773.070
        40.500          24.800
 122859594.866 7  95734709.74144  23379382.352    23379388.961
        43.700          29.400
 113638605.946 7  88549559.34948  21624682.383    21624688.883
        47.600          49.900
 107806689.216 8  84005263.67847  20514920.047    20514928.367
        50.800          42.800
 125475858.365 6  97773341.18943  23877236.797    23877242.402
        38.900          22.300
 126092203.596 6  98253714.90946  23994531.906    23994539.168
        39.500          37.800
 126683766.421 6  98714707.93344  24107131.406    24107134.125
        41.500          24.400
 132825369.466 5 103500290.41152  25275824.875    25275828.574
        33.000          15.600
 127214918.386 6  99128544.10743  24208173.547    24208177.809
        38.300          21.300
 21  1  1  0 10  0.0000000  0 11G07G21G30G09G08G01G04G27G22G14G16
 111408572.405 8  86811871.23446  21200334.977    21200339.039
        49.100          41.300
 107155552.906 8  83497927.99747  20391021.688    20391025.227
        50.700          43.500
 124440032.163 6  96966289.90544  23680154.438    23680160.156
        40.100          26.800
 122912335.356 7  95775806.21644  23389418.641    23389425.031
        44.100          29.300
 113696925.983 7  88595003.51848  21635779.977    21635787.059
        47.200          49.500
 107739325.127 8  83952772.20347  20502101.117    20502109.086
        51.000          43.000
 125550674.874 6  97831639.73643  23891474.172    23891479.816
        39.000          23.500
 126175785.230 6  98318843.43546  24010437.086    24010443.953
        39.300          37.200
 126629522.628 6  98672440.12744  24096808.313    24096811.484
        40.800          24.500
 132766073.330 5 103454085.56652  25264541.609    25264544.258
        32.300          14.800
 127255940.281 6  99160509.18343  24215979.242    24215984.008
        38.800          22.000
 21  1  1  0 10 30.0000000  0 11G07G21G30G09G08G01G04G27G22G14G16
 111341469.815 8  86759583.51546  21187565.625    21187569.863
        49.300          40.900
 107169113.081 8  83508494.37247  20393601.914    20393605.598
        50.700          43.900
 124342399.760 6  96890212.71944  23661575.156    23661581.789
        40.300          27.500
 122965204.270 7  95817002.77944  23399478.070    23399485.781
        42.100          28.300
 113755327.611 7  88640511.27348  21646893.133    21646900.379
        47.900          49.900
 107672450.351 8  83900662.00647  20489375.219    20489383.004
        50.200          42.700
 125625385.897 6  97889856.10044  23905690.711    23905697.219
        40.200          24.600
 126259256.091 6  98383885.64146  24026321.188    24026327.816
        41.000          38.400
 126575179.939 6  98630095.23844  24086467.336    24086470.551
        38.800          25.000
 132706644.553 5 103407777.46352  25253231.984    25253236.055
        32.000          14.800
 127297047.647 6  99192540.88743  24223802.430    24223806.617
        38.500          22.000
 21  1  1  0 11  0.0000000  0 11G07G21G30G09G08G01G04G27G22G14G16
 111274791.700 8  86707626.54346  21174877.242    21174881.332
        49.600          40.900
 107183247.615 8  83519508.29547  20396291.680    20396295.332
        50.500          43.900
 124244947.832 6  96814276.17444  23643031.242    23643036.984
        39.900          27.100
 123018198.821 6  95858297.22444  23409563.070    23409569.871
        41.600          25.900
 113813808.432 7  88686080.73448  21658022.172    21658028.797
        47.800          49.600
 107606067.478 8  83848935.10547  20476743.305    20476750.957
        50.300          43.000
 125699989.113 6  97947988.43843  23919886.766    23919893.859
        39.900          22.800
 126342614.912 6  98448840.55146  24042183.602    24042190.777
        41.200          37.400
 126520740.167 6  98587674.72844  24076107.914    24076111.082
        40.700          25.700
 132647082.614 5 103361365.55342  25241898.383    25241903.379
        35.100          14.800
 127338241.371 6  99224639.88543  24231641.258    24231645.813
        40.200          21.300
 21  1  1  0 11 30.0000000  0 11G07G21G30G09G08G01G04G27G22G14G16
 111208540.779 8  86656002.44447  21162270.352    21162274.313
        50.000          42.000
 107197955.579 8  83530969.06747  20399090.852    20399094.195
        50.900          43.700
 124147678.952 6  96738482.27444  23624521.609    23624527.086
        40.900          25.800
 123071316.067 6  95899687.27744  23419670.945    23419677.832
        40.700          27.000
 113872366.530 7  88731710.40448  21669165.250    21669171.813
        47.900          49.200
 107540179.106 8  83797593.52147  20464205.023    20464212.992
        50.200          42.500
 125774481.881 6  98006034.74943  23934062.602    23934069.293
        40.500          23.500
 126425860.542 6  98513707.26046  24058025.688    24058031.898
        39.900          37.100
 126466205.666 6  98545180.40444  24065730.797    24065733.480
        41.500          25.600
 132587387.112 5 103314849.65242  25230539.391    25230544.211
        34.800          15.600
 127379522.947 6  99256807.31043  24239497.414    24239500.715
        41.100          21.800
 21  1  1  0 12  0.0000000  0 11G07G21G30G09G08G01G04G27G22G14G16
 111142719.634 8  86604713.23846  21149744.984    21149749.098
        49.300          40.900
 107213236.200 8  83542876.04447  20401998.375    20402001.957
        51.000          43.900
 124050595.617 6  96662832.94244  23606046.867    23606053.234
        40.400          26.700
 123124553.067 6  95941170.65644  23429801.516    23429808.840
        41.400          27.200
 113930999.452 7  88777398.38748  21680322.875    21680329.664
        47.100          49.300
 107474787.732 8  83746639.22347  20451761.305    20451769.230
        50.300          43.000
 125848861.971 6  98063993.23543  23948216.180    23948223.117
        38.100          22.300
 126508991.700 6  98578484.78046  24073844.633    24073851.332
        40.100          37.500
 126411578.986 6  98502614.22544  24055335.227    24055338.313
        40.300          25.600
 132527558.097 5 103268229.72042  25219153.609    25219160.020
        33.700          16.300
 127420893.079 6  99289043.75843  24247369.578    24247373.734
        39.600          22.200
 21  1  1  0 12 30.0000000  0 11G07G21G30G09G08G01G04G27G22G14G16
 111077330.638 8  86553760.77046  21137301.836    21137305.766
        49.900          40.900
 107229088.846 8  83555228.76447  20405014.742    20405018.711
        51.100          44.000
 123953700.587 6  96587330.35844  23587608.023    23587614.848
        41.300          26.100
 123177907.125 6  95982745.22944  23439955.195    23439961.824
        41.400          28.000
 113989705.646 7  88823143.45248  21691494.023    21691501.188
        46.900          49.500
 107409896.185 8  83696074.38547  20439412.984    20439420.766
        49.300          43.200
 125923126.938 6  98121862.00243  23962349.320    23962354.961
        38.800          22.900
 126592007.465 6  98643172.35846  24089641.227    24089648.711
        38.400          36.000
 126356862.429 6  98459978.05843  24044923.188    24044925.984
        39.100          23.500
 132467595.102 5 103221505.40642  25207742.242    25207749.078
        35.400          15.600
 127462352.769 6  99321349.99543  24255259.398    24255262.992
        39.200          22.200
 21  1  1  0 13  0.0000000  0 11G07G21G30G09G08G01G04G27G22G14G16
 111012376.554 8  86503147.20246  21124941.656    21124945.492
        49.500          40.800
 107245513.063 8  83568026.86447  20408140.281    20408144.102
        50.600          43.400
 123856996.712 6  96511976.68144  23569206.328    23569213.508
        40.800          27.100
 123231375.518 6  96024408.91444  23450130.094    23450136.719
        41.100          28.400
 114048483.243 7  88868944.15948  21702678.953    21702686.090
        45.800          48.800
 107345507.011 8  83645901.02547  20427159.859    20427167.910
        49.900          42.400
 125997274.428 6  98179639.22344  23976459.383    23976464.926
        38.300          24.600
 126674906.664 6  98707769.14646  24105415.789    24105423.734
        38.400          36.000
 126302058.015 6  98417273.37344  24034494.063    24034496.430
        40.200          24.300
 132407497.851 5 103174676.35442  25196306.891    25196311.605
        33.300          13.900
 127503902.882 6  99353726.68343  24263165.133    24263169.582
        39.800          22.000
 21  1  1  0 13 30.0000000  0 11G07G21G30G09G08G01G04G27G22G14G16
 110947859.550 8  86452874.19946  21112663.898    21112668.355
        49.300          41.300
 107262507.276 8  83581269.11447  20411374.078    20411377.848
        50.800          43.300
 123760486.379 6  96436773.84044  23550840.563    23550848.488
        40.400          25.900
 123284955.032 6  96066159.18544  23460325.563    23460332.121
        40.200          27.800
 114107329.778 7  88914798.59248  21713877.297    21713884.227
        46.700          49.000
 107281622.596 8  83596120.96547  20415003.297    20415011.098
        49.900          43.300
 126071301.945 6  98237322.97843  23990545.828    23990552.227
        36.900          22.000
 126757688.038 6  98772274.09146  24121169.945    24121176.301
        38.800          36.200
 126247167.677 6  98374501.80144  24024048.766    24024050.891
        40.700          25.300
 132347266.317 5 103127742.73242  25184844.742    25184849.074
        34.300          15.600
 127545544.328 6  99386174.56943  24271090.688    24271094.082
        40.100          22.300
 21  1  1  0 14  0.0000000  0 11G07G21G30G09G08G01G04G27G22G14G16
 110883782.811 8  86402944.27346  21100470.766    21100474.969
        48.500          41.100
 107280071.349 8  83594955.41147  20414716.594    20414720.297
        50.300          43.700
 123664172.414 6  96361724.01444  23532512.570    23532520.500
        40.500          27.300
 123338643.258 6  96107994.16244  23470541.695    23470548.555
        39.300          26.700
 114166243.808 7  88960705.61548  21725088.375    21725095.352
        46.000          49.000
 107218245.772 8  83546736.42147  20402942.859    20402950.914
        50.200          42.900
 126145207.450 6  98294911.64643  24004610.000    24004616.113
        37.400          21.500
 126840350.659 6  98836686.49145  24136899.406    24136906.457
        37.900          35.600
 126192194.377 6  98331665.54444  24013587.367    24013590.340
        41.400          25.000
 132286900.320 5 103080704.26842  25173357.438    25173360.617
        35.800          15.600
 127587278.443 6  99418694.62243  24279031.914    24279035.742
        40.000          21.800
 21  1  1  0 14 30.0000000  0 11G07G21G30G09G08G01G04G27G22G14G16
 110820148.303 8  86353358.94046  21088361.531    21088365.773
        49.400          41.100
 107298204.156 8  83609084.88147  20418166.984    20418170.504
        49.700          43.600
 123568057.313 6  96286829.15444  23514222.727    23514230.313
        40.900          27.900
 123392437.089 6  96149911.44344  23480778.438    23480785.395
        39.000          27.200
 114225223.285 7  89006663.63748  21736311.727    21736318.523
        45.900          48.600
 107155378.807 8  83497749.18247  20390979.906    20390987.746
        49.800          43.200
 126218988.271 6  98352403.16543  24018649.375    24018655.883
        39.200          22.800
 126922893.243 6  98901005.38545  24152607.164    24152613.895
        38.400          34.700
 126137140.227 7  98288766.25944  24003110.891    24003114.012
        42.300          26.100
 132226399.569 5 103033560.81342  25161845.117    25161848.297
        33.700          16.900
 127629105.891 6  99451287.43443  24286990.773    24286995.328
        38.700          21.100
 21  1  1  0 15  0.0000000  0 11G07G21G30G09G08G01G04G27G22G14G16
 110756958.871 8  86304120.41746  21076337.406    21076340.844
        48.800          41.500
 107316904.981 8  83623656.95847  20421725.891    20421729.301
        50.600          43.600
 123472143.844 6  96212091.41044  23495971.328    23495978.516
        40.800          26.500
 123446333.731 6  96191908.82344  23491034.875    23491041.637
        40.800          26.400
 114284265.962 7  89052670.90148  21747547.383    21747554.070
        46.500          48.900
 107093024.354 8  83449161.31047  20379114.281    20379122.254
        50.300          43.300
 126292642.219 6  98409795.80743  24032665.383    24032671.211
        37.900          22.000
 127005314.826 6  98965229.98345  24168291.453    24168298.133
        39.000          35.400
 126082007.531 6  98245805.77344  23992618.852    23992622.613
        41.800          24.700
 132165763.824 5 102986312.22742  25150306.125    25150310.656
        35.000          17.400
 127671027.565 6  99483953.64143  24294967.992    24294972.293
        38.900          22.300
 21  1  1  0 15 30.0000000  0 11G07G21G30G09G08G01G04G27G22G14G16
 110694216.832 8  86255230.52146  21064397.773    21064401.406
        48.800          41.100
 107336173.048 8  83638671.04747  20425392.695    20425396.129
        50.400          43.500
 123376434.664 6  96137512.86244  23477758.063    23477765.418
        40.200          28.200
 123500330.392 6  96233984.13944  23501309.773    23501316.488
        40.500          26.900
 114343370.424 7  89098726.30648  21758794.844    21758801.195
        46.200          48.800
 107031184.946 8  83400974.76247  20367346.672    20367354.422
        49.900          43.400
 126366166.997 6  98467087.80243  24046656.758    24046662.941
        39.400          22.000
 127087614.374 6  99029359.48245  24183952.438    24183959.352
        37.900          33.700
 126026798.570 7  98202785.87544  23982113.313    23982116.641
        42.200          25.100
 132104992.950 5 102938958.31542  25138741.813    25138746.434
        35.200          17.400
 127713045.151 6  99516694.63043  24302964.516    24302968.313
        40.500          22.500
 21  1  1  0 16  0.0000000  0 11G07G21G30G09G08G01G04G27G22G14G16
 110631924.586 8  86206691.11146  21052543.930    21052547.676
        49.400          41.300
 107356007.240 8  83654126.25847  20429166.797    20429170.070
        50.000          43.800
 123280932.406 6  96063095.54044  23459584.648    23459591.559
        41.800          28.700
 123554424.330 6  96276135.25044  23511603.320    23511610.762
        40.900          26.400
 114402534.260 7  89144827.99048  21770053.227    21770059.660
        46.500          48.800
 106969862.915 8  83353191.36347  20355677.383    20355685.141
        51.100          43.600
 126439560.127 6  98524277.17143  24060623.219    24060629.137
        37.900          21.500
 127169790.858 6  99093393.08445  24199590.203    24199596.867
        37.400          32.700
 125971515.658 6  98159708.32444  23971593.688    23971596.410
        40.900          24.000
 132044086.905 5 102891499.08443  25127151.094    25127157.141
        34.800          19.600
 127755159.044 6  99549510.63643  24310978.648    24310982.648
        40.300          21.800
 21  1  1  0 16 30.0000000  0 11G07G21G30G09G08G01G04G27G22G14G16
 110570085.143 8  86158504.52947  21040776.078    21040780.199
        49.600          42.100
 107376406.828 8  83670022.05047  20433048.906    20433052.125
        49.900          44.200
 123185639.778 6  95988841.56044  23441450.789    23441457.730
        40.600          28.300
 123608612.766 7  96318360.02144  23521915.789    23521922.098
        42.100          28.300
 114461755.929 7  89190974.74148  21781322.422    21781328.918
        45.900          48.300
 106909060.980 8  83305813.23447  20344107.109    20344115.129
        50.200          43.600
 126512819.540 6  98581362.43043  24074563.570    24074569.934
        39.300          20.900
 127251843.209 6  99157329.97945  24215202.813    24215210.938
        36.400          33.400
 125916161.426 6  98116575.18943  23961059.656    23961062.465
        40.800          21.700
 131983045.478 5 102843943.37252  25115535.578    25115541.191
        34.000          16.300
 127797370.345 6  99582402.53543  24319010.672    24319014.883
        39.200          22.300
 21  1  1  0 17  0.0000000  0 11G07G21G30G09G08G01G04G27G22G14G16
 110508700.876 8  86110672.63446  21029094.984    21029099.242
        49.600          41.600
 107397370.497 8  83686357.38847  20437037.750    20437041.574
        49.700          44.200
 123090559.313 6  95914752.90344  23423357.563    23423364.457
        41.000          28.600
 123662892.662 6  96360656.01544  23532244.508    23532251.242
        41.600          27.000
 114521033.112 7  89237164.73148  21792602.859    21792609.301
        47.200          48.600
 106848781.270 8  83258842.04447  20332636.219    20332644.270
        50.200          43.900
 126585942.752 6  98638341.50843  24088478.813    24088485.125
        39.500          22.200
 127333770.281 6  99221169.25945  24230794.609    24230800.633
        37.400          32.300
 125860738.241 7  98073388.39344  23950513.172    23950515.625
        42.000          24.400
 131921868.452 5 102796272.80652  25103894.547    25103898.977
        34.500          17.800
 127839680.033 6  99615371.10643  24327062.305    24327066.559
        40.500          22.200
 21  1  1  0 17 30.0000000  0 12G07G21G30G09G08G01G04G27G28G22G14G16
 110447773.836 8  86063197.01646  21017501.297    21017505.141
        50.000          41.700
 107418897.443 8  83703131.64147  20441134.500    20441137.871
        49.900          43.700
 122995693.787 6  95840831.72244  23405304.664    23405311.930
        40.400          27.100
 123717261.387 6  96403021.27444  23542590.875    23542596.984
        41.600          26.700
 114580364.041 7  89283396.61448  21803892.719    21803899.582
        47.000          48.600
 106789026.348 8  83212279.77947  20321265.313    20321273.332
        50.200          43.700
 126658927.406 6  98695212.67543  24102367.563    24102374.125
        38.800          19.600
 127415571.089 6  99284910.14945  24246360.453    24246366.844
        38.000          32.600
 134785448.68315                  25648827.703
        33.300
 125805248.028 6  98030149.30744  23939953.594    23939956.258
        41.200          26.100
 131860555.60115 102748496.67552  25092227.297    25092231.660
        33.200          17.400
 127882089.010 6  99648417.04543  24335131.531    24335136.496
        39.200          22.200
 21  1  1  0 18  0.0000000  0 11G07G21G30G09G08G01G04G27G22G14G16
 110387306.585 8  86016079.67947  21005994.984    21005998.500
        48.800          42.000
 107440986.599 8  83720343.98247  20445337.516    20445341.355
        49.800          43.400
 122901045.847 6  95767080.10344  23387294.055    23387300.855
        40.400          27.300
 123771716.111 6  96445453.53644  23552952.813    23552959.496
        41.600          27.800
 114639747.252 7  89329669.23048  21815192.984    21815199.938
        45.800          48.200
 106729798.628 8  83166128.33547  20309994.758    20310002.363
        49.700          43.600
 126731771.498 6  98751974.26443  24116229.414    24116235.699
        38.600          22.000
 127497244.786 6  99348551.97845  24261902.453    24261908.922
        38.700          33.700
 125749693.392 6  97986860.01044  23929382.016    23929384.484
        40.400          26.100
 131799106.956 5 102700614.66442  25080533.016    25080538.523
        33.300          16.900
 127924598.045 6  99681540.93343  24343221.461    24343226.238
        39.100          22.600
 21  1  1  0 18 30.0000000  0 11G07G21G30G09G08G01G04G27G22G14G16
 110327301.745 8  85969322.65847  20994576.102    20994579.840
        49.000          42.400
 107463637.156 8  83737993.77547  20449648.016    20449651.500
        50.200          43.900
 122806618.256 6  95693500.17844  23369325.852    23369332.098
        40.900          28.500
 123826254.068 6  96487950.63944  23563331.391    23563337.906
        41.000          26.400
 114699180.292 7  89375980.68748  21826502.883    21826509.488
        46.300          48.100
 106671100.481 8  83120389.53347  20298824.961    20298832.445
        49.900          43.900
 126804472.698 6  98808624.52243  24130063.898    24130070.121
        37.500          20.400
 127578790.333 6  99412093.95345  24277420.055    24277426.727
        36.300          31.600
 125694076.806 7  97943522.46644  23918798.172    23918801.527
        42.100          25.600
 131737522.455 5 102652626.76442  25068813.063    25068818.523
        31.600          16.900
 127967208.516 6  99714743.88543  24351329.930    24351334.320
        40.200          21.300
 21  1  1  0 19  0.0000000  0 11G07G21G30G09G08G01G04G27G22G14G16
 110267761.453 8  85922927.62646  20983245.961    20983249.957
        48.600          41.900
 107486847.679 8  83756079.90647  20454064.961    20454068.184
        49.600          43.600
 122712413.446 7  95620093.84544  23351399.633    23351405.789
        42.200          28.700
 123880872.261 6  96530510.27744  23573724.438    23573731.398
        41.300          26.500
 114758661.774 7  89422329.87647  21837821.969    21837828.313
        46.000          47.900
 106612934.242 8  83075065.19547  20287756.266    20287763.809
        50.100          44.300
 126877028.665 6  98865161.60843  24143871.109    24143876.668
        38.100          19.900
 127660206.632 6  99475535.21145  24292912.773    24292919.633
        37.300          33.000
 125638400.555 6  97900138.43243  23908203.578    23908206.488
        40.200          23.800
 131675801.79215 102604532.81852  25057067.938    25057073.602
        31.900          13.900
 128009920.811 6  99748026.17443  24359458.180    24359462.129
        39.300          21.700
 21  1  1  0 19 30.0000000  0 11G07G21G30G09G08G01G04G27G22G14G16
 110208688.318 8  85876896.60846  20972004.461    20972008.496
        48.600          41.600
 107510617.276 8  83774601.68747  20458588.172    20458591.438
        50.500          43.700
 122618434.308 7  95546863.38044  23333515.680    23333521.918
        42.200          28.400
 123935568.025 7  96573130.36144  23584133.336    23584139.914
        42.400          27.500
 114818189.708 7  89468715.28547  21849149.242    21849155.898
        45.800          47.500
 106555302.223 8  83030157.14447  20276789.141    20276796.965
        50.200          44.300
 126949437.171 6  98921583.76543  24157649.656    24157655.047
        37.700          19.600
 127741492.930 6  99538875.19145  24308380.578    24308387.766
        38.900          33.500
 125582667.209 6  97856709.89344  23897598.094    23897600.664
        41.900          26.500
 131613944.86215 102556332.71552  25045298.336    25045303.027
        31.800          15.600
 128052736.719 6  99781389.18243  24367605.328    24367609.797
        39.200          21.100
 21  1  1  0 20  0.0000000  0 11G07G21G30G09G08G01G04G27G22G14G16
 110150084.561 8  85831231.34446  20960852.805    20960856.578
        49.400          41.700
 107534944.786 8  83793558.19347  20463217.133    20463220.969
        49.800          43.900
 122524683.341 6  95473810.69644  23315675.664    23315682.039
        41.600          28.900
 123990338.556 6  96615808.70744  23594554.805    23594562.266
        41.700          27.000
 114877762.099 7  89515135.31947  21860486.039    21860492.215
        45.900          47.500
 106498206.748 8  82985667.16547  20265924.203    20265931.918
        51.400          44.100
 127021695.923 6  98977889.25743  24171400.000    24171405.813
        38.000          18.300
 127822648.120 6  99602112.98745  24323824.461    24323831.090
        38.100          33.900
 125526879.042 7  97813238.64444  23886981.414    23886984.668
        42.000          26.500
 131551951.762 5 102508026.38442  25033500.719    25033506.426
        33.500          15.600
 128095656.599 6  99814833.24843  24375772.477    24375777.496
        37.000          20.600
 21  1  1  0 20 30.0000000  0 11G07G21G30G09G08G01G04G27G22G14G16
 110091952.560 8  85785933.68547  20949790.617    20949794.629
        49.100          42.400
 107559828.755 8  83812948.30747  20467952.609    20467956.148
        49.300          44.100
 122431163.110 6  95400937.79144  23297879.305    23297885.492
        41.800          29.600
 124045180.769 7  96658542.89844  23604992.016    23604998.719
        42.000          28.100
 114937377.190 7  89561588.62947  21871830.430    21871836.867
        45.400          47.600
 106441649.841 8  82941596.86447  20255161.773    20255169.234
        52.100          44.000
 127093802.523 6  99034076.22043  24185121.336    24185127.543
        36.900          19.300
 127903671.058 6  99665247.76045  24339242.539    24339249.188
        38.800          32.900
 125471038.241 6  97769726.40243  23876355.375    23876358.168
        40.100          23.800
 131489822.164 5 102459613.86142  25021678.961    25021683.160
        34.300          14.800
 128138681.354 6  99848359.01043  24383959.828    24383964.965
        39.200          20.100
 21  1  1  0 21  0.0000000  0 11G07G21G30G09G08G01G04G27G22G14G16
 110034294.558 8  85741005.36446  20938818.320    20938822.828
        50.000          41.800
 107585267.987 8  83832771.08747  20472793.477    20472797.082
        50.200          43.500
 122337876.336 6  95328246.80344  23280127.227    23280133.668
        41.700          29.800
 124100091.939 6  96701330.80944  23615440.633    23615448.035
        41.100          26.500
 114997032.775 7  89608073.49647  21883182.063    21883188.855
        45.700          47.300
 106385633.897 8  82897948.08447  20244502.695    20244509.895
        52.400          44.000
 127165754.818 6  99090142.86243  24198813.578    24198820.082
        36.900          18.300
 127984560.855 6  99728278.77245  24354635.469    24354641.543
        37.900          33.100
 125415147.579 6  97726175.29144  23865719.141    23865722.535
        40.400          26.400
 131427555.920 5 102411094.70242  25009830.547    25009834.094
        35.700          15.600
 128181811.997 6  99881967.26643  24392167.477    24392171.398
        38.800          22.500
 21  1  1  0 21 30.0000000  0 11G07G21G30G09G08G01G04G27G22G14G16
 109977113.254 8  85696448.50647  20927937.266    20927941.418
        49.800          42.100
 107611261.834 8  83853026.03947  20477739.719    20477743.613
        49.300          44.000
 122244826.018 6  95255740.07344  23262420.008    23262427.090
        40.600          28.700
 124155069.739 6  96744170.66544  23625902.531    23625909.668
        40.000          27.000
 115056727.459 7  89654588.83547  21894541.977    21894548.379
        46.000          47.400
 106330161.506 8  82854722.84947  20233946.141    20233954.203
        51.900          44.300
 127237551.043 6  99146087.95143  24212476.203    24212482.246
        36.900          18.600
 128065316.934 6  99791205.57045  24370003.336    24370009.000
        39.400          33.200
 125359209.765 6  97682587.44844  23855075.141    23855078.223
        40.500          24.500
 131365153.262 5 102362469.28142  24997954.125    24997959.258
        35.400          15.600
 128225049.574 6  99915658.88043  24400395.914    24400399.574
        39.200          21.100
 21  1  1  0 22  0.0000000  0 11G07G21G30G09G08G01G04G27G22G14G16
 109920410.899 8  85652264.85147  20917147.148    20917151.262
        48.300          42.700
 107637809.218 8  83873712.31447  20482792.164    20482795.367
        49.100          43.700
 122152014.734 6  95183419.59644  23244758.273    23244765.477
        40.700          28.800
 124210111.174 6  96787060.08044  23636376.125    23636383.449
        39.900          27.200
 115116459.475 7  89701133.26847  21905908.508    21905915.535
        46.400          47.500
 106275234.830 8  82811922.85147  20223493.797    20223502.043
        49.800          44.600
 127309188.907 6  99201909.60443  24226108.063    24226114.465
        36.200          19.000
 128145938.515 6  99854027.58945  24385344.805    24385351.301
        39.100          34.400
 125303226.961 6  97638964.57644  23844421.875    23844424.453
        41.700          25.800
 131302614.204 5 102313737.61742  24986053.492    24986058.980
        33.400          16.300
 128268394.681 6  99949434.24143  24408643.227    24408648.328
        38.400          21.300
 21  1  1  0 22 30.0000000  0 11G07G21G30G09G08G01G04G27G22G14G16
 109864189.891 8  85608456.27147  20906448.781    20906452.824
        50.000          42.400
 107664908.258 8  83894828.44847  20487948.711    20487952.109
        49.900          44.000
 122059445.009 6  95111287.34944  23227142.516    23227150.113
        40.900          28.900
 124265213.466 6  96829996.93444  23646862.477    23646868.508
        40.900          27.600
 115176226.901 7  89747705.29347  21917282.000    21917288.648
        45.000          47.100
 106220855.920 8  82769549.69347  20213145.984    20213153.801
        51.800          44.300
 127380665.898 5  99257605.90442  24239709.539    24239716.090
        35.900          16.900
 128226424.335 6  99916743.81145  24400660.375    24400666.727
        39.200          33.100
 125247200.790 7  97595307.86344  23833760.719    23833762.980
        42.100          25.800
 131239938.577 5 102264899.50142  24974125.836    24974132.094
        33.000          15.600
 128311848.939 6  99983294.68043  24416913.031    24416917.781
        38.900          21.700
 21  1  1  0 23  0.0000000  0 11G07G21G30G09G08G01G04G27G22G14G16
 109808452.567 8  85565024.59147  20895842.125    20895846.238
        50.100          42.100
 107692558.305 8  83916373.94047  20493209.805    20493213.602
        48.500          43.600
 121967119.650 7  95039345.50944  23209574.453    23209580.766
        42.400          29.100
 124320373.742 6  96872978.97544  23657358.719    23657365.438
        41.400          27.300
 115236027.658 7  89794303.29347  21928661.156    21928668.195
        45.500          47.000
 106167026.897 8  82727605.00947  20202902.750    20202910.352
        50.900          44.500
 127451980.292 5  99313175.49142  24253279.133    24253286.664
        35.200          16.300
 128306773.710 6  99979353.71645  24415950.500    24415956.441
        38.400          33.900
 125191134.744 6  97551620.11244  23823091.945    23823093.840
        40.600          26.400
 131177126.260 5 102215954.95042  24962173.703    24962178.188
        33.200          16.300
 128355413.281 6 100017240.86643  24425203.070    24425207.629
        40.200          21.100
 21  1  1  0 23 30.0000000  0 11G07G21G30G09G08G01G04G27G22G14G16
 109753200.841 8  85521971.29646  20885328.203    20885332.348
        50.800          41.900
 107720757.905 8  83938347.65447  20498576.383    20498579.754
        50.300          43.700
 121875041.170 7  94967596.05444  23192052.461    23192058.809
        42.600          29.800
 124375589.246 6  96916004.05544  23667866.563    23667872.637
        41.500          26.200
 115295860.646 7  89840926.39547  21940047.602    21940053.445
        45.800          46.900
 106113750.032 8  82686090.58247  20192764.133    20192772.160
        51.200          44.300
 127523129.530 5  99368616.44342  24266819.875    24266826.434
        34.200          15.600
 128386985.558 6 100041856.44845  24431214.508    24431220.391
        38.700          33.000
 125135030.948 6  97507902.93844  23812415.266    23812417.711
        41.000          25.300
 131114177.31315 102166903.94352  24950194.875    24950199.863
        34.600          16.900
 128399088.075 6 100051273.19543  24433513.813    24433518.016
        39.100          19.300
 21  1  1  0 24  0.0000000  0 11G07G21G30G09G08G01G04G27G22G14G16
 109698436.897 8  85479298.10147  20874907.141    20874911.074
        50.500          42.300
 107749505.187 8  83960748.13047  20504046.641    20504050.070
        49.800          43.200
 121783212.118 7  94896040.96344  23174578.383    23174583.969
        43.000          29.200
 124430856.982 6  96959069.80944  23678383.031    23678389.820
        41.100          26.100
 115355723.623 7  89887572.86247  21951439.063    21951445.152
        45.700          46.700
 106061027.207 8  82645007.87947  20182731.773    20182739.449
        52.000          44.700
 127594111.451 5  99423926.94942  24280327.320    24280334.086
        32.400          16.300
 128467059.015 6 100104251.33445  24446452.039    24446458.031
        38.700          32.400
 125078891.521 6  97464157.98244  23801731.977    23801734.750
        39.200          25.200
 131051091.314 5 102117746.04843  24938190.234    24938194.574
        35.300          18.300
 128442874.147 6 100085392.19643  24441846.047    24441849.910
        39.300          19.900
 21  1  1  0 24 30.0000000  0 12G07G21G30G09G08G01G04G27G28G22G14G16
 109644163.137 8  85437006.85047  20864579.172    20864583.082
        48.400          42.500
 107778799.100 8  83983574.56747  20509621.133    20509624.918
        49.600          43.400
 121691635.330 7  94824682.45044  23157151.461    23157157.598
        42.400          29.100
 124486174.387 6  97002174.27043  23688909.500    23688916.461
        40.600          23.500
 115415615.106 7  89934241.54447  21962835.977    21962842.297
        45.900          46.800
 106008860.744 8  82604358.69447  20172804.773    20172812.461
        49.900          44.500
 127664924.040 5  99479105.53242  24293803.008    24293810.066
        33.300          15.600
 128546993.423 6 100166537.88545  24461663.148    24461669.250
        40.000          33.400
 134129074.367 4                  25523919.227
        28.900
 125022719.502 6  97420387.62043  23791042.391    23791045.520
        38.000          22.900
 130987868.671 5 102068481.72443  24926159.641    24926164.359
        35.700          18.300
 128486772.516 6 100119598.71843  24450200.313    24450203.852
        38.800          19.300
 21  1  1  0 25  0.0000000  0 12G07G21G30G09G08G01G04G27G28G22G14G16
 109590381.976 8  85395099.45747  20854344.664    20854348.984
        50.500          42.800
 107808638.316 8  84006825.90947  20515299.578    20515303.129
        49.800          43.500
 121600313.453 7  94753522.55644  23139773.516    23139779.906
        42.500          29.800
 124541538.756 6  97045315.35843  23699445.500    23699451.992
        41.300          23.500
 115475533.414 7  89980931.13647  21974238.094    21974244.703
        46.800          46.900
 105957252.624 8  82564144.58347  20162983.797    20162991.664
        51.600          44.400
 127735565.19515  99534150.60152  24307245.156    24307251.867
        31.000          14.800
 128626787.735 6 100228715.26545  24476847.117    24476853.469
        38.600          32.700
 134081058.312 5                  25514780.141
        32.600
 124966517.329 6  97376593.77943  23780347.602    23780350.445
        40.200          22.300
 130924509.249 5 102019110.78643  24914103.047    24914107.516
        35.700          19.600
 128530783.977 6 100153893.29842  24458575.000    24458579.422
        37.900          17.400
 21  1  1  0 25 30.0000000  0 12G07G21G30G09G08G01G04G27G28G22G14G16
 109537096.027 8  85353577.92947  20844204.922    20844208.949
        50.800          42.400
 107839022.193 8  84030501.66347  20521081.055    20521085.035
        49.500          43.400
 121509249.422 6  94682563.60744  23122444.063    23122450.816
        41.600          28.300
 124596947.486 6  97088491.00043  23709989.320    23709995.684
        40.500          23.500
