     2.11           OBSERVATION DATA    G (GPS)             RINEX VERSION / TYPE
teqc  2014Jan16     NOAA/NOS/NGS/CORS   20150316 09:31:29UTCPGM / RUN BY / DATE
Solaris x86 5.10|AMD64|cc SC5.8 -xarch=amd64|=+|=+          COMMENT
teqc  2014Jan16     NOAA/NOS/NGS/CORS   20150316 09:31:28UTCCOMMENT
teqc  2015Feb13     UNAVCO Archive Ops  20150316 03:17:55UTCCOMMENT
BIT 2 OF LLI FLAGS DATA COLLECTED UNDER A/S CONDITION       COMMENT
input file: cn00201503150000a.tgd                           COMMENT
RINEX file created by UNAVCO GPS Archive.                   COMMENT
For more information contact archive-gps@unavco.org         COMMENT
Monument ID: 24127                                          COMMENT
UNAVCO 4-char name:   CN00                                  COMMENT
4-char name from Log or data file: CN00                     COMMENT
Monument location: 17.66852 -61.78558 -21.9819              COMMENT
Visit ID: 112713                                            COMMENT
                                                            COMMENT
Barbuda__ATG2012                                            COMMENT
                                                            COMMENT
End of DB comments                                          COMMENT
 SNR is mapped to RINEX snr flag value [0-9]                COMMENT
  L1 & L2: min(max(int(snr_dBHz/6), 0), 9)                  COMMENT
CN00                                                        MARKER NAME
UNAVCO Community    UNAVCO                                  OBSERVER / AGENCY
5235K51839          TRIMBLE NETR9       4.85                REC # / TYPE / VERS
5240354581          TRM59800.00     NONE                    ANT # / TYPE
  2874042.8280 -5356829.5000  1923453.4320                  APPROX POSITION XYZ
        0.0083        0.0000        0.0000                  ANTENNA: DELTA H/E/N
     1     1                                                WAVELENGTH FACT L1/2
     7    L1    L2    C1    P2    P1    S1    S2            # / TYPES OF OBSERV
    30.0000                                                 INTERVAL
teqc windowed: start @ 2015 Mar 15 00:00:00.000             COMMENT
teqc windowed: delta = 86400.000 sec                        COMMENT
teqc edited: all SBAS satellites excluded                   COMMENT
teqc edited: all Galileo satellites excluded                COMMENT
teqc edited: all Compass satellites excluded                COMMENT
teqc edited: all QZSS satellites excluded                   COMMENT
Forced Modulo Decimation to 30 seconds                      COMMENT
  2015     3    15     0     0    0.0000000     GPS         TIME OF FIRST OBS
                                                            END OF HEADER
 15  3 15  0  0  0.0000000  0  9G07G16G23G27G09G19G04G11G01
 119946480.041 7  93464776.75745  22825026.906    22825033.324
        45.000          32.300
 121053470.925 7  94327513.76044  23035675.461    23035683.461
        45.500          29.900
 114870414.679 8  89509528.23846  21859117.227    21859123.996
        50.000          36.500
 115453285.078 8  89963786.43246  21969956.703    21969965.758
        50.600          39.000
 117992937.600 7  91942638.08345  22453298.227    22453307.340
        46.700          35.800
 107392487.859 8  83682600.89547  20436046.477    20436049.906
        50.500          45.300
 112937801.344 8  88003635.77146  21491291.234    21491302.578
        49.300          38.800
 113470306.214 8  88418499.73246  21592639.977    21592648.035
        51.900          40.200
 121170718.670 7  94418857.96244  23057988.516    23058008.707
        43.800          29.300
 15  3 15  0  0 30.0000000  0  9G07G16G23G27G09G19G04G11G01
 119849114.884 7  93388907.85445  22806498.766    22806505.594
        44.900          32.600
 121082400.353 7  94350056.02545  23041181.086    23041188.793
        45.800          30.600
 114925954.005 8  89552805.54746  21869686.719    21869692.668
        50.100          36.500
 115531775.003 8  90024947.37546  21984893.242    21984901.594
        50.200          38.800
 118005804.384 7  91952664.10945  22455746.648    22455755.879
        45.500          35.300
 107432973.609 8  83714148.23347  20443750.914    20443754.227
        50.900          45.500
 112860486.277 8  87943390.50846  21476578.539    21476589.473
        50.700          37.700
 113387181.327 8  88353727.24646  21576821.039    21576829.801
        51.000          39.100
 121069923.876 7  94340317.06044  23038806.641    23038826.773
        43.800          29.300
 15  3 15  0  1  0.0000000  0  9G07G16G23G27G09G19G04G11G01
 119751861.308 7  93313125.88545  22787993.047    22787998.938
        45.400          32.100
 121111300.466 7  94372575.43145  23046680.523    23046688.348
        44.900          30.200
 114981814.774 8  89596333.35046  21880316.414    21880321.836
        51.000          36.800
 115610389.264 8  90086205.19246  21999853.008    21999861.711
        50.000          39.400
 118019120.044 7  91963039.92445  22458280.828    22458289.531
        46.800          35.000
 107473884.805 8  83746027.09547  20451535.828    20451539.668
        51.500          45.300
 112783491.244 8  87883394.61946  21461926.953    21461938.355
        50.000          38.300
 113304383.681 8  88289209.74646  21561065.664    21561073.664
        52.100          39.800
 120969202.912 7  94261833.67445  23019640.266    23019660.105
        44.100          30.200
 15  3 15  0  1 30.0000000  0  9G07G16G23G27G09G19G04G11G01
 119654721.554 7  93237432.63245  22769507.938    22769513.711
        46.600          31.800
 121140171.881 7  94395072.48445  23052175.180    23052183.414
        46.000          30.100
 115037993.880 8  89640109.18846  21891006.695    21891013.699
        50.000          36.700
 115689125.309 7  90147557.89946  22014834.984    22014844.629
        47.500          38.300
 118032882.744 7  91973764.07245  22460898.523    22460909.164
        44.500          35.100
 107515218.660 8  83778235.29847  20459400.508    20459405.109
        50.200          44.800
 112706818.801 8  87823650.09646  21447336.016    21447347.008
        48.900          38.100
 113221915.554 8  88224949.01246  21545372.055    21545380.348
        51.400          39.400
 120868558.581 7  94183409.98244  23000487.695    23000507.008
        43.800          29.000
 15  3 15  0  2  0.0000000  0  9G07G16G23G27G09G19G04G11G01
 119557698.460 7  93161830.29345  22751044.734    22751051.094
        45.800          33.100
 121169015.311 7  94417547.72644  23057663.609    23057671.258
        44.700          29.800
 115094488.632 8  89684131.00046  21901758.328    21901764.336
        49.300          37.200
 115767980.677 7  90209003.59646  22029841.305    22029850.008
        47.800          38.600
 118047090.812 7  91984835.26645  22463601.953    22463612.418
        44.900          33.600
 107556972.660 8  83810770.88847  20467346.180    20467350.957
        51.100          45.800
 112630472.384 8  87764159.61546  21432807.547    21432818.656
        50.200          37.900
 113139779.646 8  88160947.16746  21529741.711    21529750.004
        50.600          40.200
 120767993.815 7  94105048.29844  22981351.117    22981369.609
        44.500          29.100
 15  3 15  0  2 30.0000000  0  9G07G16G23G27G09G19G04G11G01
 119460794.440 7  93086320.72345  22732605.117    22732610.832
        45.500          33.200
 121197831.689 7  94440001.89445  23063147.484    23063155.309
        45.400          31.200
 115151295.900 8  89728396.30746  21912567.891    21912573.781
        49.600          36.600
 115846952.897 8  90270540.34646  22044870.328    22044878.504
        50.500          38.800
 118061742.499 7  91996252.13845  22466390.594    22466400.590
        45.600          34.400
 107599144.158 8  83843631.79047  20475371.680    20475375.578
        51.800          45.300
 112554454.838 8  87704925.40346  21418341.523    21418352.809
        49.800          38.100
 113057978.397 8  88097206.08046  21514175.656    21514183.363
        51.300          39.900
 120667511.552 7  94026750.90945  22962228.898    22962248.563
        42.700          30.000
 15  3 15  0  3  0.0000000  0  9G07G16G23G27G09G19G04G11G01
 119364012.715 7  93010906.46545  22714188.359    22714193.547
        46.900          33.600
 121226621.949 7  94462435.69145  23068625.766    23068634.762
        45.900          30.400
 115208412.687 8  89772902.81146  21923436.305    21923443.367
        49.200          36.400
 115926039.844 8  90332166.49246  22059919.727    22059928.137
        49.700          38.600
 118076836.337 7  92008013.53245  22469263.055    22469272.875
        45.100          34.800
 107641731.047 8  83876816.38847  20483475.703    20483480.012
        51.000          45.200
 112478769.503 8  87645950.05846  21403939.164    21403949.980
        49.400          38.200
 112976514.636 8  88033727.97546  21498673.461    21498681.578
        51.500          39.800
 120567115.122 7  93948520.38044  22943123.922    22943142.414
        45.000          29.800
 15  3 15  0  3 30.0000000  0  9G07G16G23G27G09G19G04G11G01
 119267355.591 7  92935589.28645  22695793.734    22695800.094
        45.800          33.700
 121255386.396 7  94484849.37245  23074099.172    23074108.109
        45.700          30.200
 115265835.630 8  89817647.88446  21934364.070    21934370.195
        49.300          36.100
 116005238.489 8  90393879.68346  22074990.742    22074998.625
        49.200          38.300
 118092369.934 7  92020117.60445  22472218.586    22472228.699
        44.700          35.100
 107684729.984 8  83910322.05847  20491658.250    20491661.914
        51.500          44.700
 112403418.825 8  87587235.47146  21389599.898    21389610.832
        49.700          38.000
 112895390.125 8  87970514.21546  21483235.766    21483243.297
        51.600          39.800
 120466806.844 7  93870358.54144  22924035.719    22924054.738
        43.700          29.600
 15  3 15  0  4  0.0000000  0  9G07G16G23G27G09G19G04G11G01
 119170826.076 7  92860371.53245  22677425.109    22677432.172
        46.400          33.500
 121284126.728 7  94507244.26844  23079568.195    23079577.250
        44.800          29.100
 115323562.862 8  89862630.05246  21945349.891    21945355.547
        49.900          37.200
 116084547.403 8  90455678.80246  22090082.102    22090091.098
        49.100          38.200
 118108342.634 7  92032563.83446  22475258.930    22475269.160
        45.400          36.100
 107728139.684 8  83944147.81147  20499918.930    20499922.945
        51.000          45.300
 112328406.849 8  87528784.81646  21375325.734    21375336.727
        49.400          39.400
 112814608.535 8  87907567.65646  21467863.273    21467871.156
        51.100          39.100
 120366590.733 7  93792268.52244  22904964.375    22904983.512
        44.300          29.100
 15  3 15  0  4 30.0000000  0  9G07G16G23G27G09G19G04G11G01
 119074427.001 7  92785255.41145  22659081.133    22659087.316
        46.900          34.000
 121312843.632 7  94529620.91345  23085033.914    23085041.504
        46.400          31.500
 115381590.773 8  89907846.53145  21956391.727    21956398.262
        49.900          35.900
 116163963.876 8  90517561.73446  22105194.547    22105203.602
        48.600          38.100
 118124752.246 7  92045350.51145  22478380.992    22478391.398
        45.000          35.400
 107771957.103 8  83978291.25547  20508256.602    20508260.676
        50.300          45.300
 112253736.443 8  87470600.31746  21361116.078    21361127.188
        49.900          38.400
 112734171.967 8  87844889.94646  21452557.133    21452564.547
        52.100          39.800
 120266469.376 7  93714252.32844  22885912.070    22885930.738
        44.500          29.600
 15  3 15  0  5  0.0000000  0  9G07G16G23G27G09G19G04G11G01
 118978160.991 7  92710242.98845  22640762.305    22640768.137
        47.500          34.400
 121341537.624 7  94551979.67244  23090494.148    23090502.676
        45.400          29.300
 115439916.387 8  89953294.95346  21967490.266    21967496.859
        48.900          36.200
 116243485.426 8  90579526.54146  22120326.617    22120335.906
        48.300          37.800
 118141596.884 7  92058476.15845  22481586.781    22481596.602
        45.500          35.800
 107816179.613 8  84012750.36247  20516671.805    20516676.113
        51.200          44.800
 112179410.410 8  87412684.14846  21346972.539    21346983.648
        50.000          39.400
 112654083.032 8  87782483.12546  21437316.516    21437324.281
        51.600          40.100
 120166445.704 7  93636312.25745  22866878.438    22866896.461
        45.400          30.100
 15  3 15  0  5 30.0000000  0  9G07G16G23G27G09G19G04G11G01
 118882030.650 7  92635336.27645  22622469.523    22622475.941
        47.200          34.400
 121370209.419 7  94574321.14245  23095950.641    23095959.109
        46.100          30.700
 115498536.478 8  89998972.85845  21978645.828    21978651.836
        49.800          35.800
 116323109.534 7  90641571.26646  22135478.984    22135488.453
        47.200          38.100
 118158874.654 7  92071939.31645  22484875.305    22484884.832
        45.300          35.700
 107860804.382 8  84047522.92747  20525163.906    20525167.629
        51.400          45.400
 112105431.641 8  87355038.56746  21332894.859    21332905.383
        50.500          39.500
 112574344.075 8  87720349.01446  21422142.805    21422150.570
        53.100          39.900
 120066522.642 7  93558450.58845  22847863.492    22847880.930
        43.900          30.900
 15  3 15  0  6  0.0000000  0  9G07G16G23G27G09G19G04G11G01
 118786038.877 7  92560537.55545  22604202.734    22604209.152
        47.600          34.700
 121398860.041 7  94596646.13645  23101403.367    23101411.367
        45.600          30.600
 115557448.183 8  90044877.98646  21989856.477    21989862.719
        50.100          36.400
 116402833.973 7  90703694.15946  22150650.297    22150659.059
        47.300          38.300
 118176583.858 7  92085738.65645  22488244.211    22488254.559
        44.900          35.200
 107905829.155 8  84082607.17647  20533731.727    20533735.977
        51.700          45.100
 112031803.428 8  87297666.14546  21318883.070    21318893.535
        50.200          39.300
 112494957.230 8  87658489.25946  21407035.805    21407043.219
        52.700          39.900
 119966703.326 7  93480669.75045  22828867.727    22828885.633
        44.600          30.600
 15  3 15  0  6 30.0000000  0  9G07G16G23G27G09G19G04G11G01
 118690187.786 7  92485848.44545  22585963.219    22585969.402
        47.100          34.800
 121427489.909 7  94618954.93744  23106850.570    23106858.629
        46.200          29.900
 115616648.438 8  90091007.95846  22001122.430    22001127.852
        50.800          36.200
 116482655.840 7  90765892.97846  22165839.844    22165848.898
        47.000          38.200
 118194722.086 7  92099872.29146  22491696.719    22491705.949
        45.000          36.000
 107951250.519 8  84118000.46147  20542375.102    20542379.117
        50.900          45.200
 111958528.184 8  87240568.76146  21304939.445    21304950.027
        49.800          39.100
 112415924.965 8  87596905.80546  21391996.508    21392003.746
        53.100          40.600
 119866990.208 7  93402971.65545  22809892.477    22809910.910
        43.900          31.100
 15  3 15  0  7  0.0000000  0  9G07G16G23G27G09G19G04G11G01
 118594480.790 7  92411271.61245  22567750.602    22567756.375
        47.800          33.800
 121456100.306 7  94641248.54644  23112295.398    23112303.691
        44.700          29.000
 115676134.100 8  90137360.31446  22012442.477    22012448.191
        50.900          36.600
 116562573.302 7  90828166.28746  22181047.664    22181056.660
        47.000          37.900
 118213288.052 7  92114339.23845  22495229.430    22495239.133
        45.200          35.600
 107997066.474 8  84153701.21747  20551093.383    20551097.633
        51.100          44.600
 111885609.482 8  87183749.19646  21291063.477    21291074.352
        50.300          40.100
 112337250.186 8  87535600.91446  21377025.281    21377032.461
        52.300          40.500
 119767386.845 7  93325359.06844  22790937.742    22790956.469
        43.400          29.900
 15  3 15  0  7 30.0000000  0  9G07G16G23G27G09G19G04G11G01
 118498921.020 7  92336809.48745  22549566.750    22549572.172
        47.800          35.300
 121484692.382 7  94663527.87245  23117735.727    23117745.664
        43.300          30.200
 115735902.755 8  90183933.19845  22023814.945    22023821.422
        49.500          35.900
 116642584.344 7  90890512.50846  22196274.047    22196282.750
        47.300          37.700
 118232280.143 7  92129138.23045  22498843.281    22498853.160
        45.300          34.600
 108043274.976 8  84189707.85047  20559886.922    20559890.703
        50.800          45.000
 111813050.784 8  87127210.16146  21277256.438    21277266.551
        51.300          40.200
 112258935.628 8  87474576.71746  21362122.086    21362129.969
        52.700          40.900
 119667896.548 7  93247834.60145  22772004.750    22772023.184
        43.100          30.200
 15  3 15  0  8  0.0000000  0  9G07G16G23G27G09G19G04G11G01
 118403510.859 7  92262463.94445  22531410.422    22531415.785
        47.600          35.000
 121513266.707 7  94685793.38445  23123173.938    23123182.641
        45.500          30.900
 115795950.869 8  90230723.83145  22035242.445    22035248.863
        50.100          35.800
 116722686.276 7  90952929.57046  22211516.258    22211525.254
        47.200          37.100
 118251696.077 7  92144267.48745  22502539.328    22502548.148
        45.300          35.400
 108089872.963 8  84226017.98947  20568754.203    20568758.219
        50.700          45.100
 111740854.481 8  87070953.50446  21263517.008    21263527.766
        49.900          40.300
 112180983.399 8  87413834.83946  21347287.945    21347295.535
        53.000          40.600
 119568522.038 7  93170400.34545  22753094.836    22753113.035
        42.600          30.900
 15  3 15  0  8 30.0000000  0  9G07G16G23G27G09G19G04G11G01
 118308252.990 7  92188237.09445  22513283.320    22513288.273
        47.200          33.900
 121541824.240 7  94708045.80945  23128608.695    23128616.871
        45.200          30.600
 115856275.722 8  90277730.11745  22046721.469    22046728.824
        48.700          35.500
 116802876.860 7  91015415.70746  22226775.945    22226785.293
        46.200          37.700
 118271534.133 7  92159725.68745  22506313.445    22506322.852
        45.400          34.400
 108136857.940 8  84262629.67147  20577695.070    20577698.852
        51.300          44.600
 111669023.861 8  87014981.79946  21249847.883    21249858.699
        50.300          39.500
 112103395.942 8  87353377.20946  21332523.180    21332531.004
        52.300          40.700
 119469266.425 7  93093058.74045  22734207.125    22734224.797
        43.500          32.200
 15  3 15  0  9  0.0000000  0 10G07G16G23G27G30G09G19G04G11G01
 118213150.202 7  92114131.05445  22495184.789    22495190.797
        47.400          34.000
 121570365.541 7  94730285.58945  23134040.195    23134048.781
        45.200          30.200
 115916873.493 8  90324949.05545  22058253.555    22058260.207
        50.000          35.300
 116883153.345 7  91077968.76446  22242052.547    22242060.957
        47.500          37.900
 133121372.71814                  25332160.008
        29.600
 118291791.853 7  92175510.88545  22510169.211    22510178.148
        45.400          35.200
 108184226.556 8  84299540.29047  20586709.453    20586712.766
        51.400          45.000
 111597561.456 8  86959297.01146  21236249.578    21236259.516
        51.200          40.200
 112026175.466 8  87293205.52346  21317828.586    21317836.527
        52.400          40.800
 119370132.261 7  93015811.75745  22715342.438    22715359.406
        43.700          32.500
 15  3 15  0  9 30.0000000  0  9G07G16G23G27G09G19G04G11G01
 118118204.816 7  92040147.67845  22477116.820    22477123.590
        45.800          33.500
 121598891.179 7  94752513.17545  23139468.000    23139476.469
        45.300          30.200
 115977741.498 8  90372378.56745  22069836.344    22069843.172
        50.300          35.500
 116963513.271 7  91140586.83946  22257344.766    22257352.824
        47.400          37.300
 118312467.130 7  92191621.46146  22514103.383    22514112.672
        45.500          36.300
 108231976.503 8  84336748.04947  20595795.539    20595799.203
        50.200          44.900
 111526470.027 8  86903901.28946  21222720.570    21222730.742
        50.200          39.400
 111949323.902 8  87233321.30246  21303204.273    21303211.512
        53.300          41.100
 119271122.482 7  92938661.70745  22696501.063    22696517.914
        43.200          31.900
 15  3 15  0 10  0.0000000  0  9G07G16G23G27G09G19G04G11G01
 118023421.234 7  91966290.36945  22459080.508    22459086.105
        47.800          34.300
 121627403.729 7  94774730.54344  23144893.328    23144902.855
        44.300          29.300
 116038877.858 8  90420017.17645  22081470.227    22081476.293
        49.900          35.000
 117043955.901 7  91203269.36246  22272651.859    22272660.328
        46.500          37.100
 118333559.624 7  92208057.14745  22518116.758    22518126.164
        45.000          35.400
 108280106.147 8  84374251.67447  20604954.195    20604957.918
        50.200          44.700
 111455754.153 8  86848798.20746  21209263.352    21209274.285
        49.600          39.900
 111872845.545 8  87173727.88846  21288651.234    21288658.414
        53.100          40.500
 119172241.669 7  92861612.13745  22677684.047    22677701.602
        44.300          32.600
 15  3 15  0 10 30.0000000  0  9G07G16G23G27G09G19G04G11G01
 117928800.959 7  91892560.30845  22441076.391    22441081.051
        47.700          35.100
 121655903.085 7  94796937.63744  23150317.781    23150327.012
        44.200          29.800
 116100278.340 8  90467861.60445  22093154.336    22093160.988
        49.900          34.200
 117124477.829 7  91266013.67546  22287974.906    22287983.727
        46.600          37.300
 118355066.202 7  92224815.49945  22522209.438    22522218.316
        45.300          35.600
 108328612.014 8  84412048.45247  20614184.375    20614188.566
        50.800          44.500
 111385415.717 8  86793989.22346  21195878.789    21195888.844
        49.800          39.800
 111796742.085 8  87114426.60446  21274169.031    21274176.621
        52.800          40.600
 119073491.755 7  92784664.54245  22658892.141    22658909.695
        43.800          32.400
 15  3 15  0 11  0.0000000  0  9G07G16G23G27G09G19G04G11G01
 117834346.833 8  91818959.70445  22423102.555    22423106.746
        48.100          34.800
 121684389.592 7  94819134.71744  23155739.156    23155747.449
        44.300          29.300
 116161939.525 8  90515909.16545  22104887.969    22104895.266
        48.900          35.400
 117205076.743 7  91328817.98246  22303312.219    22303320.922
        46.600          37.200
 118376984.863 7  92241894.95645  22526380.070    22526389.715
        45.100          35.800
 108377491.337 8  84450136.23347  20623486.477    20623489.848
        50.700          44.500
 111315457.453 8  86739476.48246  21182565.938    21182576.168
        50.500          40.000
 111721014.907 8  87055418.51646  21259758.367    21259765.898
        52.900          40.500
 118974875.719 7  92707821.27545  22640126.477    22640143.387
        44.600          33.500
 15  3 15  0 11 30.0000000  0 10G07G16G23G27G30G09G19G04G11G01
 117740061.993 7  91745491.02645  22405159.977    22405165.457
        47.700          35.000
 121712864.517 7  94841322.76945  23161157.578    23161166.516
        44.900          30.000
 116223859.251 8  90564158.17945  22116671.117    22116677.594
        50.100          35.000
 117285750.441 7  91391680.55646  22318663.156    22318672.625
        47.500          36.300
 132612844.08215                  25235386.094
        30.800
 118399313.608 7  92259293.96945  22530629.461    22530639.398
        45.300          34.900
 108426741.772 8  84488513.20347  20632858.117    20632862.074
        51.200          44.800
 111245882.581 8  86685262.48346  21169326.164    21169336.102
        50.700          40.100
 111645667.092 8  86996706.04146  21245420.164    21245427.285
        52.900          40.900
 118876396.796 7  92631084.86345  22621385.977    22621403.004
        43.800          32.300
 15  3 15  0 12  0.0000000  0 10G07G16G23G27G30G09G19G04G11G01
 117645949.330 7  91672156.50145  22387250.688    22387256.637
        46.800          35.200
 121741329.130 7  94863502.78744  23166573.438    23166583.844
        44.200          28.900
 116286034.408 8  90612606.24845  22128503.227    22128509.586
        49.200          34.500
 117366496.847 7  91454599.78246  22334029.352    22334039.172
        46.600          36.900
 132510974.32915                  25215996.508
        30.800
 118422050.618 7  92277011.10145  22534956.313    22534965.898
        45.200          34.900
 108476360.593 8  84527177.21047  20642300.016    20642304.383
        51.200          44.700
 111176694.220 8  86631349.66446  21156159.883    21156170.055
        50.800          40.100
 111570700.841 8  86938290.87746  21231154.398    21231161.754
        52.900          40.400
 118778058.154 7  92554457.74045  22602671.594    22602689.441
        44.100          31.900
 15  3 15  0 12 30.0000000  0 10G07G16G23G27G30G09G19G04G11G01
 117552011.656 7  91598958.32345  22369374.563    22369380.805
        47.500          35.400
 121769784.158 7  94885675.34444  23171989.117    23171998.523
        44.900          29.100
 116348461.508 8  90661250.64845  22140382.063    22140388.363
        49.900          35.000
 117447313.530 7  91517573.79046  22349408.164    22349417.395
        46.600          36.400
 132409054.676 5                  25196604.703
        32.600
 118445193.632 7  92295044.60045  22539359.820    22539370.051
        44.900          35.000
 108526344.932 8  84566126.04947  20651811.883    20651816.074
        51.000          44.600
 111107895.064 8  86577740.12546  21143067.438    21143078.430
        50.600          39.500
 111496118.714 8  86880175.03146  21216961.781    21216968.668
        52.100          41.100
 118679862.640 7  92477942.13845  22583985.906    22584003.227
        44.500          33.500
 15  3 15  0 13  0.0000000  0 10G07G16G23G27G30G09G19G04G11G01
 117458251.792 7  91525898.71745  22351533.133    22351538.965
        47.200          35.800
 121798230.764 7  94907841.33244  23177402.852    23177412.141
        44.400          28.900
 116411137.614 8  90710089.08145  22152309.945    22152316.480
        49.800          34.800
 117528198.383 7  91580600.91446  22364800.547    22364809.719
        47.000          36.400
 132307088.232 5                  25177202.133
        33.800
 118468740.772 7  92313393.01045  22543840.594    22543850.000
        44.700          33.900
 108576692.442 8  84605357.87247  20661392.836    20661396.676
        50.400          43.900
 111039488.264 8  86524436.30746  21130049.719    21130060.125
        50.300          39.600
 111421923.131 8  86822360.40146  21202842.617    21202850.324
        53.100          41.400
 118581813.534 7  92401540.61945  22565328.164    22565344.605
        44.800          33.300
 15  3 15  0 13 30.0000000  0 10G07G16G23G27G30G09G19G04G11G01
 117364672.003 7  91452979.42545  22333725.383    22333731.273
        47.000          35.300
 121826668.971 7  94930000.78744  23182814.375    23182823.078
        43.700          28.600
 116474059.409 8  90759118.95445  22164283.133    22164290.020
        49.800          34.800
 117609148.638 7  91643678.98246  22380205.547    22380214.074
        46.200          36.500
 132205076.051 5 103016968.82452  25157789.258    25157796.906
        34.500          16.300
 118492689.381 7  92332054.25845  22548397.906    22548407.375
        44.900          34.700
 108627399.540 8  84644869.90247  20671041.438    20671045.570
        50.300          43.900
 110971476.035 8  86471439.94546  21117107.648    21117117.996
        49.800          39.900
 111348115.719 8  86764848.24046  21188797.875    21188804.469
        52.500          41.100
 118483913.266 7  92325255.07045  22546697.031    22546713.473
        44.400          33.000
 15  3 15  0 14  0.0000000  0 10G07G16G23G27G30G09G19G04G11G01
 117271275.743 7  91380203.17146  22315952.711    22315958.309
        46.800          36.400
 121855100.675 7  94952155.16444  23188224.820    23188233.582
        45.100          29.600
 116537224.170 8  90808338.14845  22176302.977    22176309.629
        50.200          34.700
 117690162.673 7  91706806.76245  22395621.977    22395630.328
        46.300          35.800
 132103020.555 5 102937445.15742  25138370.008    25138377.773
        34.300          15.600
 118517037.903 7  92351027.12145  22553030.930    22553040.574
        44.400          34.200
 108678464.440 8  84684660.73847  20680759.320    20680763.395
        51.300          44.300
 110903862.003 8  86418753.86046  21104241.242    21104250.945
        50.300          39.800
 111274699.478 8  86707640.88746  21174827.063    21174834.125
        52.600          41.200
 118386165.550 7  92249088.40445  22528096.930    22528113.078
        44.700          32.800
 15  3 15  0 14 30.0000000  0 10G07G16G23G27G30G09G19G04G11G01
 117178066.335 7  91307572.49345  22298214.781    22298221.199
        46.300          35.400
 121883526.720 7  94974305.14244  23193633.727    23193643.723
        43.300          29.200
 116600628.601 8  90857744.09345  22188368.883    22188375.652
        49.200          34.400
 117771238.241 7  91769982.49446  22411049.922    22411058.566
        46.200          36.200
 132000923.814 6 102857889.33142  25118940.641    25118949.051
        36.800          16.900
 118541784.250 7  92370309.97945  22557740.836    22557750.539
        44.500          34.600
 108729884.526 8  84724728.33347  20690544.039    20690548.113
        50.700          43.900
 110836648.906 8  86366380.19546  21091450.672    21091460.492
        50.600          40.700
 111201676.847 8  86650740.24046  21160931.258    21160938.730
        52.600          41.200
 118288573.454 7  92173042.99645  22509525.156    22509541.070
        45.100          33.400
 15  3 15  0 15  0.0000000  0 10G07G16G23G27G30G09G19G04G11G01
 117085045.489 7  91235088.75245  22280513.570    22280519.461
        45.600          35.400
 121911948.036 7  94996451.43744  23199042.602    23199052.070
        45.100          29.400
 116664269.691 8  90907334.44745  22200478.586    22200486.059
        49.500          34.700
 117852372.846 7  91833204.23646  22426489.313    22426498.133
        46.000          36.000
 131898787.639 6 102778302.81642  25099504.734    25099514.320
        37.000          14.800
 118566926.045 7  92389900.96245  22562524.555    22562534.082
        43.900          34.000
 108781656.573 8  84765070.19347  20700396.258    20700400.391
        50.500          44.600
 110769839.434 8  86314321.05146  21078737.133    21078747.070
        49.900          40.700
 111129049.722 8  86594147.78946  21147110.625    21147117.688
        52.500          41.600
 118191139.727 7  92097120.99045  22490983.578    22490999.844
        44.900          33.200
 15  3 15  0 15 30.0000000  0 10G07G16G23G27G30G09G19G04G11G01
 116992216.617 7  91162754.60945  22262848.430    22262854.613
        45.800          35.700
 121940365.342 7  95018594.59444  23204449.578    23204458.340
        43.600          29.200
 116728144.369 8  90957106.81745  22212634.555    22212641.090
        49.600          34.700
 117933564.490 7  91896470.41545  22441939.203    22441947.965
        45.300          35.300
 131796614.154 6 102698687.13842  25080061.961    25080071.430
        37.900          16.900
 118592461.284 7  92409798.53745  22567382.969    22567393.141
        43.500          34.600
 108833777.923 8  84805684.24447  20710314.023    20710318.156
        51.400          44.200
 110703436.656 8  86262578.80046  21066101.102    21066110.863
        50.200          41.000
 111056820.469 8  86537865.36046  21133365.594    21133372.656
        52.800          41.800
 118093867.604 7  92021324.90645  22472472.672    22472489.758
        44.100          32.700
 15  3 15  0 16  0.0000000  0 10G07G16G23G27G30G09G19G04G11G01
 116899582.794 7  91090572.43946  22245221.750    22245227.289
        46.700          36.600
 121968779.936 7  95040735.63844  23209857.711    23209866.648
        44.300          28.900
 116792249.915 8  91007059.08745  22224832.477    22224840.359
        49.000          34.200
 118014811.135 7  91959779.45145  22457399.875    22457408.109
        45.900          35.900
 131694405.508 6 102619044.13442  25060611.273    25060621.563
        37.300          15.600
 118618388.044 7  92430001.18645  22572317.266    22572327.027
        44.100          33.200
 108886246.376 8  84846568.76147  20720298.914    20720303.164
        49.900          44.300
 110637443.501 8  86211155.74446  21053543.063    21053553.000
        50.200          40.600
 110984991.807 8  86481895.07246  21119696.953    21119704.250
        51.700          40.700
 117996760.378 7  91945657.29045  22453994.289    22454010.496
        44.400          32.800
 15  3 15  0 16 30.0000000  0 10G07G16G23G27G30G09G19G04G11G01
 116807146.977 7  91018544.57546  22227631.336    22227637.402
        47.500          36.600
 121997192.575 7  95062875.14744  23215263.984    23215273.512
        42.600          27.900
 116856582.819 8  91057188.52545  22237074.508    22237082.273
        49.200          34.400
 118096110.555 7  92023129.61045  22472871.430    22472879.430
        45.800          35.700
 131592163.766 6 102539375.36642  25041155.289    25041165.754
        36.900          15.600
 118644703.979 7  92450507.10645  22577325.227    22577335.223
        44.100          34.100
 108939059.035 8  84887721.48347  20730348.992    20730353.535
        50.300          43.900
 110571862.881 8  86160054.14346  21041062.984    21041072.512
        50.800          40.100
 110913565.609 8  86426238.40846  21106104.883    21106111.945
        51.500          41.400
 117899821.073 7  91870120.54245  22435547.117    22435562.270
        45.300          34.200
 15  3 15  0 17  0.0000000  0 10G07G16G23G27G30G09G19G04G11G01
 116714912.003 7  90946673.21046  22210079.914    22210085.395
        47.300          36.600
 122025604.425 7  95085014.07144  23220671.883    23220680.234
        45.200          29.800
 116921140.152 8  91107492.83545  22249360.305    22249367.426
        50.000          35.400
 118177460.540 7  92086519.17345  22488351.148    22488359.910
        45.800          35.000
 131489890.832 6 102459682.21842  25021692.609    25021703.895
        36.500          16.300
 118671406.959 7  92471314.59145  22582407.711    22582416.121
        44.900          35.000
 108992213.158 8  84929140.29047  20740463.445    20740467.520
        49.800          44.200
 110506697.322 8  86109275.96046  21028662.172    21028671.578
        50.200          40.500
 110842544.444 8  86370897.34646  21092590.117    21092596.711
        51.200          41.500
 117803052.651 7  91794716.92045  22417132.609    22417148.641
        44.900          33.600
 15  3 15  0 17 30.0000000  0 10G07G16G23G27G30G09G19G04G11G01
 116622880.666 7  90874960.52045  22192566.844    22192572.383
        47.000          35.300
 122054016.477 7  95107153.13444  23226077.914    23226086.969
        43.600          28.000
 116985918.935 8  91157969.69445  22261686.945    22261693.949
        49.900          34.100
 118258859.166 7  92149946.64045  22503841.063    22503850.000
        46.000          35.500
 131387589.042 6 102379966.62542  25002225.164    25002237.035
        36.500          16.900
 118698494.958 7  92492422.12145  22587560.539    22587571.297
        44.100          34.000
 109045706.306 8  84970823.27847  20750643.148    20750646.813
        49.800          43.800
 110441949.997 8  86058823.66946  21016341.391    21016350.563
        50.800          40.300
 110771930.739 8  86315873.78747  21079152.953    21079160.016
        51.400          42.000
 117706458.429 7  91719449.05745  22398750.773    22398766.980
        44.500          33.900
 15  3 15  0 18  0.0000000  0 10G07G16G23G27G30G09G19G04G11G01
 116531055.880 7  90803408.77246  22175092.992    22175099.059
        47.000          36.900
 122082429.802 7  95129293.20144  23231484.336    23231494.566
        43.800          29.100
 117050915.951 8  91208616.61145  22274055.555    22274062.969
        49.100          34.400
 118340304.054 7  92213410.16246  22519340.055    22519348.465
        46.400          36.500
 131285260.118 6 102300229.86942  24982754.133    24982764.129
        37.100          17.400
 118725965.515 7  92513827.74645  22592789.414    22592798.820
        45.100          34.800
 109099535.564 8  85012768.16247  20760886.164    20760889.945
        49.900          43.900
 110377623.548 8  86008699.32846  21004100.328    21004109.914
        50.200          40.500
 110701726.473 8  86261169.28347  21065793.125    21065800.773
        51.100          42.000
 117610041.314 7  91644319.19945  22380402.242    22380419.504
        44.300          33.700
 15  3 15  0 18 30.0000000  0 10G07G16G23G27G30G09G19G04G11G01
 116439440.353 7  90732020.08446  22157659.250    22157665.082
        47.200          36.900
 122110845.072 7  95151434.77544  23236892.680    23236902.207
        43.500          29.500
 117116127.956 8  91259431.06945  22286465.664    22286472.668
        49.300          33.700
 118421792.892 7  92276907.90646  22534847.039    22534855.449
        46.700          36.300
 131182906.049 6 102220473.53043  24963276.602    24963287.242
        37.900          19.900
 118753816.261 7  92535529.61145  22598089.461    22598098.574
        45.300          34.900
 109153697.922 8  85054972.61347  20771193.172    20771196.660
        49.800          44.200
 110313720.561 8  85958904.96946  20991939.703    20991948.816
        50.200          40.700
 110631933.285 8  86206785.08946  21052511.852    21052519.617
        51.000          41.400
 117513804.208 7  91569329.58945  22362089.367    22362105.281
        45.100          34.500
 15  3 15  0 19  0.0000000  0 10G07G16G23G27G30G09G19G04G11G01
 116348036.780 7  90660796.54346  22140265.813    22140271.176
        47.100          36.700
 122139263.417 7  95173578.72044  23242299.938    23242310.578
        43.000          28.800
 117181551.908 8  91310410.66045  22298915.867    22298922.871
        49.400          34.400
 118503323.629 7  92340438.31246  22550361.742    22550370.680
        45.600          36.300
 131080529.027 6 102140699.27043  24943795.555    24943805.375
        38.300          18.600
 118782045.019 7  92557526.03045  22603460.586    22603469.934
        44.800          34.800
 109208190.639 8  85097434.47247  20781562.656    20781567.199
        49.800          43.400
 110250243.882 8  85909442.78446  20979860.055    20979869.934
        50.100          40.800
 110562554.307 8  86152723.66647  21039309.281    21039316.227
        50.800          42.300
 117417750.265 7  91494482.70345  22343810.547    22343825.934
        45.200          34.200
 15  3 15  0 19 30.0000000  0 10G07G16G23G27G30G09G19G04G11G01
 116256848.126 7  90589740.48046  22122913.602    22122918.730
        47.300          36.900
 122167685.799 7  95195725.84544  23247709.453    23247718.566
        43.200          29.600
 117247184.624 8  91361552.93345  22311405.313    22311411.379
        48.800          33.600
 118584894.068 7  92403999.64445  22565883.898    22565893.070
        46.200          35.200
 130978131.023 6 102060908.72042  24924309.016    24924318.719
        37.700          17.400
 118810649.417 7  92579815.16145  22608904.156    22608913.801
        45.400          35.700
 109263010.963 8  85140151.61147  20791994.703    20791998.895
        49.900          43.300
 110187196.101 8  85860314.80346  20967862.922    20967872.094
        50.400          40.400
 110493591.210 8  86098986.30147  21026186.078    21026192.906
        51.100          42.300
 117321882.485 7  91419780.87745  22325567.508    22325582.484
        45.400          34.700
 15  3 15  0 20  0.0000000  0 10G07G16G23G27G30G09G19G04G11G01
 116165877.905 7  90518854.63046  22105602.094    22105607.223
        46.900          36.900
 122196113.416 7  95217877.05044  23253118.305    23253128.828
        43.800          29.500
 117313023.341 8  91412855.72445  22323933.586    22323941.234
        48.700          33.500
 118666502.419 7  92467590.53045  22581413.469    22581422.055
        47.400          35.700
 130875714.415 6 101981103.67442  24904819.406    24904829.168
        37.300          17.800
 118839627.519 7  92602395.48745  22614418.492    22614428.371
        44.500          35.700
 109318156.527 8  85183122.18847  20802488.414    20802492.840
        49.800          43.800
 110124580.381 8  85811523.50246  20955947.320    20955956.375
        50.800          41.700
 110425046.114 8  86045574.65446  21013142.469    21013148.711
        52.300          41.800
 117226204.227 7  91345226.71845  22307359.672    22307375.234
        45.000          34.800
 15  3 15  0 20 30.0000000  0 10G07G16G23G27G30G09G19G04G11G01
 116075128.615 7  90448140.93646  22088333.320    22088338.508
        47.700          37.100
 122224546.880 7  95240032.80144  23258530.625    23258539.094
        44.200          28.800
 117379064.752 8  91464316.44945  22336501.375    22336508.145
        49.000          33.900
 118748146.520 7  92531209.26845  22596948.609    22596958.371
        46.400          35.400
 130773281.543 6 101901285.87843  24885327.422    24885336.828
        38.100          19.000
 118868977.037 7  92625265.23445  22620003.711    22620013.531
        45.700          34.600
 109373624.365 8  85226343.88547  20813043.734    20813047.926
        49.800          43.600
 110062399.341 8  85763070.90046  20944114.484    20944123.953
        50.600          41.300
 110356921.499 8  85992490.64447  21000178.609    21000185.203
        52.100          42.000
 117130718.598 7  91270822.66645  22289189.203    22289204.063
        45.000          34.800
 15  3 15  0 21  0.0000000  0 10G07G16G23G27G30G09G19G04G11G01
 115984603.552 7  90377601.96246  22071106.703    22071112.418
        47.600          37.500
 122252988.255 7  95262194.72444  23263941.000    23263951.113
        43.000          28.900
 117445306.167 8  91515932.99845  22349106.602    22349113.430
        49.500          33.100
 118829824.626 7  92594854.49645  22612491.664    22612501.367
        46.000          35.000
 130670834.508 6 101821457.07143  24865832.531    24865840.590
        38.600          18.600
 118898695.870 7  92648422.74245  22625658.508    22625668.211
        44.300          34.300
 109429412.540 8  85269815.19147  20823660.055    20823663.895
        49.700          43.700
 110000656.278 8  85714959.58846  20932365.094    20932374.324
        50.600          41.400
 110289220.018 8  85939736.35946  20987295.148    20987301.625
        51.100          41.800
 117035428.949 7  91196571.32145  22271054.930    22271071.371
        44.800          34.400
 15  3 15  0 21 30.0000000  0 10G07G16G23G27G30G09G19G04G11G01
 115894305.012 7  90307239.49946  22053922.945    22053929.129
        47.200          37.500
 122281437.782 7  95284362.98244  23269356.680    23269365.559
        43.500          29.300
 117511743.902 8  91567702.54145  22361749.344    22361756.582
        48.400          33.200
 118911534.126 7  92658524.19145  22628040.992    22628049.637
        45.500          35.100
 130568375.004 6 101741618.54843  24846335.086    24846343.848
        39.700          18.300
 118928781.230 7  92671865.89045  22631383.523    22631393.695
        44.200          33.700
 109485517.299 8  85313533.18547  20834336.180    20834340.723
        50.000          43.700
 109939353.158 8  85667191.07146  20920699.336    20920708.391
        50.800          40.900
 110221943.065 8  85887312.87446  20974492.898    20974498.848
        50.700          41.600
 116940337.852 7  91122474.69445  22252960.727    22252976.055
        45.500          35.300
 15  3 15  0 22  0.0000000  0 10G07G16G23G27G30G09G19G04G11G01
 115804236.433 7  90237056.22446  22036784.148    22036789.805
        47.300          37.200
 122309896.844 7  95306538.68044  23274772.297    23274781.703
        43.500          29.500
 117578375.400 8  91619623.06145  22374428.594    22374435.422
        48.900          32.700
 118993273.335 7  92722217.03045  22643595.789    22643604.492
        46.000          35.400
 130465905.494 6 101661772.23943  24826836.734    24826844.793
        41.300          20.100
 118959231.092 7  92695593.03745  22637178.023    22637188.078
        43.800          34.400
 109541936.860 8  85357496.47647  20845072.516    20845076.355
        49.600          43.000
 109878492.900 8  85619767.65846  20909118.203    20909127.199
        51.200          41.100
 110155093.218 8  85835222.19346  20961771.234    20961778.531
        51.300          41.800
 116845448.708 7  91048535.42345  22234903.813    22234918.203
        45.600          35.500
 15  3 15  0 22 30.0000000  0 10G07G16G23G27G30G09G19G04G11G01
 115714400.182 7  90167053.99146  22019687.805    22019694.809
        47.200          36.900
 122338365.656 7  95328721.96445  23280190.016    23280199.895
        43.400          30.200
 117645196.620 8  91671691.42245  22387144.031    22387151.270
        48.900          32.400
 119075039.472 7  92785930.86445  22659155.711    22659164.590
        45.800          35.800
 130363427.647 6 101581919.47843  24807335.945    24807343.652
        41.800          21.500
 118990042.564 7  92719601.96345  22643041.141    22643051.195
        43.900          34.100
 109598666.848 8  85401701.66847  20855867.609    20855871.566
        49.500          43.400
 109818077.847 8  85572691.14746  20897620.969    20897630.141
        51.400          41.400
 110088671.869 8  85783465.40546  20949132.039    20949138.398
        50.900          41.500
 116750764.025 7  90974755.46645  22216885.680    22216900.598
        45.800          35.000
 15  3 15  0 23  0.0000000  0 10G07G16G23G27G30G09G19G04G11G01
 115624799.505 7  90097235.32746  22002637.250    22002644.137
        47.300          37.100
 122366845.720 7  95350914.02844  23285608.875    23285619.633
        42.900          28.200
 117712205.197 8  91723905.78145  22399896.211    22399903.098
        50.000          33.500
 119156831.043 7  92849664.51745  22674719.797    22674729.203
        45.500          35.400
 130260943.907 7 101502062.09543  24787834.641    24787841.469
        42.500          21.100
 119021213.679 7  92743891.13045  22648973.242    22648983.297
        44.600          34.500
 109655705.669 8  85446147.49847  20866722.430    20866725.508
        50.100          43.600
 109758110.973 8  85525963.86146  20886209.656    20886219.125
        51.300          41.400
 110022681.527 8  85732044.46847  20936574.359    20936580.836
        51.000          42.300
 116656287.299 7  90901137.56345  22198906.883    22198921.449
        45.700          35.000
 15  3 15  0 23 30.0000000  0 10G07G16G23G27G30G09G19G04G11G01
 115535437.420 8  90027602.57846  21985632.586    21985638.242
        48.100          37.600
 122395338.420 7  95373115.92244  23291030.602    23291042.063
        42.600          29.700
 117779397.715 8  91776263.45845  22412681.867    22412689.047
        49.500          33.000
 119238645.852 7  92913416.27845  22690289.219    22690298.332
        47.300          35.200
 130158456.495 7 101422201.84243  24768332.492    24768339.320
        42.900          22.200
 119052742.004 7  92768458.63745  22654973.078    22654982.426
        44.800          33.800
 109713050.408 8  85490831.71047  20877634.922    20877638.176
        50.100          43.700
 109698594.701 8  85479587.69946  20874883.953    20874892.715
        51.000          41.600
 109957124.428 8  85680961.11747  20924099.422    20924106.074
        51.100          42.300
 116562021.576 7  90827684.06545  22180968.430    22180983.289
        46.000          35.500
 15  3 15  0 24  0.0000000  0 10G07G16G23G27G30G09G19G04G11G01
 115446316.465 7  89958157.72846  21968673.727    21968679.617
        47.800          37.400
 122423844.704 7  95395328.40444  23296455.109    23296466.570
        42.400          28.400
 117846771.313 8  91828762.24645  22425503.547    22425510.609
        49.800          33.500
 119320482.151 7  92977184.78545  22705861.383    22705871.145
        46.600          35.300
 130055967.725 6 101342340.54343  24748828.227    24748835.875
        41.400          21.100
 119084625.430 7  92793302.85145  22661040.594    22661049.297
        44.500          34.200
 109770698.449 8  85535752.25947  20888604.461    20888608.828
        50.000          43.600
 109639532.115 8  85433565.06546  20863644.461    20863653.988
        51.400          41.600
 109892002.641 8  85630216.97547  20911707.102    20911713.344
        50.500          42.500
 116467970.121 7  90754397.52045  22163070.094    22163086.242
        45.800          35.500
 15  3 15  0 24 30.0000000  0 10G07G16G23G27G30G09G19G04G11G01
 115357440.300 7  89888903.59446  21951760.758    21951766.824
        47.200          37.300
 122452365.889 7  95417552.50544  23301883.031    23301893.730
        42.600          28.400
 117914323.347 8  91881400.06845  22438357.789    22438365.438
        49.300          33.500
 119402338.206 7  93040968.68845  22721438.211    22721447.797
        47.000          35.400
 129953480.018 7 101262480.07343  24729325.977    24729333.684
        42.500          22.000
 119116861.756 7  92818422.05845  22667174.398    22667184.102
        45.000          33.800
 109828647.664 8  85580907.50047  20899632.313    20899636.035
        50.100          43.800
 109580926.228 8  85387898.30147  20852491.742    20852501.148
        51.200          42.000
 109827318.516 8  85579813.86847  20899397.633    20899405.164
        50.600          42.100
 116374136.344 7  90681280.60745  22145215.031    22145229.363
        46.100          35.300
 15  3 15  0 25  0.0000000  0 10G07G16G23G27G30G09G19G04G11G01
 115268811.923 7  89819842.59046  21934894.906    21934900.914
        47.000          37.200
 122480902.745 7  95439788.80944  23307314.633    23307324.453
        43.700          28.300
 117982050.062 8  91934173.99645  22451246.031    22451253.445
        49.300          33.600
 119484211.667 8  93104766.15345  22737019.086    22737027.789
        48.000          34.600
 129850995.391 7 101182621.98643  24709822.781    24709830.840
        42.100          21.800
 119149448.334 7  92843814.17845  22673376.164    22673385.219
        45.500          34.000
 109886894.453 8  85626294.60147  20910716.359    20910719.730
        50.300          43.500
 109522779.092 8  85342588.99946  20841427.094    20841435.855
        51.600          41.700
 109763074.003 8  85529753.30647  20887172.336    20887179.867
        50.900          42.200
 116280523.035 7  90608335.48845  22127400.523    22127415.207
        45.700          35.900
 15  3 15  0 25 30.0000000  0 10G07G16G23G27G30G09G19G04G11G01
 115180433.169 7  89750976.06746  21918077.227    21918083.234
        47.800          37.600
 122509456.291 7  95462038.13644  23312748.414    23312757.941
        44.100          28.900
 118049948.704 8  91987081.88745  22464167.422    22464174.543
        49.300          33.500
 119566100.343 7  93168575.46545  22752601.047    22752610.219
        47.800          35.300
 129748515.731 7 101102767.77943  24690321.164    24690329.750
        42.100          21.800
 119182382.458 7  92869477.11545  22679641.977    22679652.090
        45.000          32.700
 109945435.943 8  85671911.35147  20921855.930    20921859.594
        49.900          43.000
 109465093.231 8  85297639.12747  20830449.539    20830458.477
        52.300          42.400
 109699270.640 8  85480036.50047  20875030.914    20875037.859
        50.200          42.300
 116187132.991 7  90535564.34546  22109628.727    22109643.059
        45.800          36.400
 15  3 15  0 26  0.0000000  0 10G07G16G23G27G30G09G19G04G11G01
 115092307.696 8  89682306.90646  21901307.945    21901313.426
        48.300          38.000
 122538027.629 7  95484301.31844  23318185.570    23318195.039
        43.200          28.700
 118118015.953 8  92040121.18445  22477119.695    22477126.992
        49.300          32.800
 119648002.431 7  93232395.21845  22768186.805    22768196.449
        47.300          34.200
 129646043.522 6 101022919.39143  24670821.164    24670829.516
        41.600          21.100
 119215661.980 7  92895409.20045  22685975.094    22685985.031
        44.900          33.600
 110004269.695 8  85717755.83247  20933051.508    20933055.230
        49.600          43.700
 109407871.236 8  85253050.72546  20819560.211    20819569.855
        52.800          41.700
 109635910.953 8  85430665.42047  20862973.875    20862980.762
        50.200          42.800
 116093969.476 7  90462969.71445  22091900.133    22091915.109
        46.200          35.500
 15  3 15  0 26 30.0000000  0 10G07G16G23G27G30G09G19G04G11G01
 115004438.658 7  89613837.56446  21884587.250    21884592.438
        47.500          38.300
 122566618.178 7  95506579.47844  23323625.102    23323635.977
        42.600          28.100
 118186249.075 8  92093289.73345  22490104.664    22490111.199
        49.500          33.500
 119729916.259 8  93296224.12445  22783774.234    22783783.641
        48.100          34.600
 129543581.181 6 100943078.69943  24651322.289    24651331.168
        40.200          20.600
 119249284.682 7  92921608.67545  22692373.523    22692383.402
        45.400          33.500
 110063393.478 8  85763826.31547  20944302.391    20944306.406
        49.800          43.700
 109351116.163 8  85208826.14647  20808760.172    20808769.641
        52.500          42.000
 109572996.811 8  85381641.51347  20851001.164    20851008.109
        50.900          42.100
 116001035.899 7  90390554.24545  22074215.008    22074229.281
        46.800          35.200
 15  3 15  0 27  0.0000000  0 10G07G16G23G27G30G09G19G04G11G01
 114916828.651 7  89545570.07046  21867915.813    21867921.352
        47.600          38.100
 122595228.657 7  95528873.13344  23329070.125    23329080.355
        43.100          29.200
 118254644.800 8  92146584.96845  22503119.430    22503126.551
        49.200          32.400
 119811839.641 7  93360060.48645  22799363.430    22799372.957
        47.500          33.700
 129441130.875 6 100863247.43143  24631826.664    24631835.836
        41.100          21.700
 119283247.846 7  92948073.46145  22698836.469    22698847.051
        44.700          33.600
 110122803.961 8  85810120.19747  20955607.977    20955611.641
        49.900          43.300
 109294830.093 8  85164967.02846  20798049.336    20798057.922
        52.100          41.600
 109510530.281 8  85332966.39047  20839114.273    20839121.395
        50.800          42.300
 115908335.137 7  90318320.18245  22056574.188    22056588.285
        45.800          35.200
 15  3 15  0 27 30.0000000  0 10G07G16G23G27G30G09G19G04G11G01
 114829481.146 7  89477507.11846  21851294.031    21851299.219
        47.900          38.500
 122623860.418 7  95551183.39044  23334518.633    23334529.039
        44.100          28.100
 118323200.155 8  92200004.61145  22516164.656    22516173.066
        48.200          32.400
 119893770.844 7  93423902.94045  22814954.992    22814963.930
        47.700          33.800
 129338694.979 6 100783427.36243  24612334.266    24612342.852
        41.200          19.900
 119317549.342 7  92974801.86845  22705363.086    22705373.434
        44.600          33.000
 110182498.900 8  85856635.74947  20966967.281    20966971.238
        50.000          42.800
 109239015.840 8  85121475.56846  20787427.883    20787436.879
        52.400          41.700
 109448513.270 8  85284641.54347  20827312.836    20827319.605
        50.300          42.100
 115815870.468 7  90246270.08845  22038978.305    22038993.516
        46.300          35.200
 15  3 15  0 28  0.0000000  0 10G07G16G23G27G30G09G19G04G11G01
 114742398.437 7  89409650.46146  21834721.891    21834727.547
        47.500          37.700
 122652514.692 7  95573511.18144  23339971.141    23339982.191
        43.900          27.400
 118391911.723 7  92253545.95245  22529240.289    22529248.348
        46.600          32.600
 119975707.686 7  93487749.79045  22830547.117    22830556.055
        47.900          33.000
 129236275.499 6 100703620.16543  24592844.375    24592852.961
        41.700          21.100
 119352186.413 7  93001791.76845  22711954.680    22711964.148
        43.600          33.700
 110242475.362 8  85903370.65747  20978380.672    20978384.219
        50.200          43.000
 109183675.818 8  85078353.63646  20776897.313    20776905.664
        51.600          41.500
 109386947.884 8  85236668.62047  20815597.570    20815603.871
        50.500          42.600
 115723644.709 7  90174406.17145  22021428.141    22021442.883
        46.000          35.500
 15  3 15  0 28 30.0000000  0 10G07G16G23G27G30G09G19G04G11G01
 114655583.736 7  89342002.68846  21818202.086    21818208.094
        47.600          38.500
 122681192.065 7  95595856.97544  23345428.586    23345439.168
        43.300          27.800
 118460776.562 7  92307206.74045  22542345.148    22542352.621
        46.600          32.400
 120057648.197 8  93551599.48745  22846140.672    22846148.730
        48.000          33.600
 129133874.509 7 100623827.29843  24573358.930    24573367.281
        42.100          21.300
 119387156.389 7  93029041.09245  22718609.445    22718619.910
        44.100          33.200
 110302730.090 8  85950322.39747  20989846.992    20989850.539
        50.100          43.200
 109128812.325 8  85035603.01946  20766456.539    20766465.535
        52.600          41.800
 109325835.774 8  85189048.89047  20803968.188    20803974.664
        50.400          42.300
 115631660.845 7  90102730.74046  22003924.125    22003938.516
        46.300          36.400
 15  3 15  0 29  0.0000000  0 10G07G16G23G27G30G09G19G04G11G01
 114569039.509 7  89274565.66846  21801733.305    21801739.020
        47.800          39.200
